[{"name":"AdventNet","category_code":"enterprise","office":{"type":"Point","coordinates":[-121.904945,37.692934]},"clean_state":"success","city":"Pleasanton","country_code":"USA","latitude":37.692934,"longitude":-121.904945,"total_money_raised":"$0"},{"name":"Wetpaint","category_code":"web","office":{"type":"Point","coordinates":[-122.333253,47.603122]},"clean_state":"success","city":"Seattle","country_code":"USA","latitude":47.603122,"longitude":-122.333253,"total_money_raised":"$39.8M"},{"name":"Wetpaint","category_code":"web","office":{"type":"Point","coordinates":[-73.9964312,40.7237306]},"clean_state":"success","city":"New York","country_code":"USA","latitude":40.7237306,"longitude":-73.9964312,"total_money_raised":"$39.8M"},{"name":"Zoho","category_code":"software","office":{"type":"Point","coordinates":[-121.904945,37.692934]},"clean_state":"success","city":"Pleasanton","country_code":"USA","latitude":37.692934,"longitude":-121.904945,"total_money_raised":"$0"},{"name":"Digg","category_code":"news","office":{"type":"Point","coordinates":[-122.394523,37.764726]},"clean_state":"success","city":"San Francisco","country_code":"USA","latitude":37.764726,"longitude":-122.394523,"total_money_raised":"$45M"},{"name":"Postini","category_code":"web","office":{"type":"Point","coordinates":[-122.247573,37.506885]},"clean_state":"success","city":"San Carlos","country_code":"USA","latitude":37.506885,"longitude":-122.247573,"total_money_raised":"$0"},{"name":"Flektor","category_code":"games_video","office":{"type":"Point","coordinates":[-118.379768,34.025958]},"clean_state":"success","city":"Culver City","country_code":"USA","latitude":34.025958,"longitude":-118.379768,"total_money_raised":"$0"},{"name":"Geni","category_code":"web","office":{"type":"Point","coordinates":[-118.393064,34.090368]},"clean_state":"success","city":"West Hollywood","country_code":"USA","latitude":34.090368,"longitude":-118.393064,"total_money_raised":"$16.5M"},{"name":"Fox Interactive Media","category_code":"web","office":{"type":"Point","coordinates":[-118.39417,34.076179]},"clean_state":"success","city":"Beverly Hills","country_code":"USA","latitude":34.076179,"longitude":-118.39417,"total_money_raised":"$0"},{"name":"Gizmoz","category_code":"web","office":{"type":"Point","coordinates":[-122.169472,37.48413]},"clean_state":"success","city":"Menlo Park","country_code":"USA","latitude":37.48413,"longitude":-122.169472,"total_money_raised":"$18.1M"},{"name":"Lala","category_code":"games_video","office":{"type":"Point","coordinates":[-122.154369,37.451151]},"clean_state":"success","city":"Palo Alto","country_code":"USA","latitude":37.451151,"longitude":-122.154369,"total_money_raised":"$44.2M"},{"name":"Helio","category_code":"mobile","office":{"type":"Point","coordinates":[-118.446596,34.057498]},"clean_state":"success","city":"Los Angeles","country_code":"USA","latitude":34.057498,"longitude":-118.446596,"total_money_raised":"$0"},{"name":"Scribd","category_code":"news","office":{"type":"Point","coordinates":[-122.404052,37.789634]},"clean_state":"success","city":"San Francisco","country_code":"USA","latitude":37.789634,"longitude":-122.404052,"total_money_raised":"$25.8M"},{"name":"Slacker","category_code":"music","office":{"type":"Point","coordinates":[-117.081406,33.022176]},"clean_state":"success","city":"San Diego","country_code":"USA","latitude":33.022176,"longitude":-117.081406,"total_money_raised":"$73.1M"},{"name":"Joost","category_code":"games_video","office":{"type":"Point","coordinates":[-74.0094471,40.7464969]},"clean_state":"success","city":"New York","country_code":"USA","latitude":40.7464969,"longitude":-74.0094471,"total_money_raised":"$45M"},{"name":"CBS","category_code":"news","office":{"type":"Point","coordinates":[-119.306607,37.269175]},"clean_state":"success","city":"","country_code":"USA","latitude":37.269175,"longitude":-119.306607,"total_money_raised":"$0"},{"name":"Babelgum","category_code":"games_video","office":{"type":"Point","coordinates":[-6.267494,53.344104]},"clean_state":"success","city":"London","country_code":"GBR","latitude":53.344104,"longitude":-6.267494,"total_money_raised":"$13.2M"},{"name":"MeetMoi","category_code":"social","office":{"type":"Point","coordinates":[-73.985506,40.757929]},"clean_state":"success","city":"New York City","country_code":"USA","latitude":40.757929,"longitude":-73.985506,"total_money_raised":"$5.58M"},{"name":"Viacom","category_code":"web","office":{"type":"Point","coordinates":[-73.986011,40.757725]},"clean_state":"success","city":"New York","country_code":"USA","latitude":40.757725,"longitude":-73.986011,"total_money_raised":"$0"},{"name":"Twitter","category_code":"social","office":{"type":"Point","coordinates":[-122.4169244,37.7768052]},"clean_state":"success","city":"San Francisco","country_code":"USA","latitude":37.7768052,"longitude":-122.4169244,"total_money_raised":"$1.16B"},{"name":"Plaxo","category_code":"web","office":{"type":"Point","coordinates":[-122.055197,37.387845]},"clean_state":"success","city":"Sunnyvale","country_code":"USA","latitude":37.387845,"longitude":-122.055197,"total_money_raised":"$28.3M"},{"name":"Facebook","category_code":"social","office":{"type":"Point","coordinates":[-122.151801,37.41605]},"clean_state":"success","city":"Menlo Park","country_code":"USA","latitude":37.41605,"longitude":-122.151801,"total_money_raised":"$2.43B"},{"name":"Facebook","category_code":"social","office":{"type":"Point","coordinates":[-6.267494,53.344104]},"clean_state":"success","city":"Dublin","country_code":"IRL","latitude":53.344104,"longitude":-6.267494,"total_money_raised":"$2.43B"},{"name":"Facebook","category_code":"social","office":{"type":"Point","coordinates":[-73.9792469,40.7557162]},"clean_state":"success","city":"New York","country_code":"USA","latitude":40.7557162,"longitude":-73.9792469,"total_money_raised":"$2.43B"},{"name":"eBay","category_code":"web","office":{"type":"Point","coordinates":[-121.930035,37.295005]},"clean_state":"success","city":"San Jose","country_code":"USA","latitude":37.295005,"longitude":-121.930035,"total_money_raised":"$6.7M"},{"name":"Powerset","category_code":"search","office":{"type":"Point","coordinates":[-122.395289,37.778613]},"clean_state":"success","city":"San Francisco","country_code":"USA","latitude":37.778613,"longitude":-122.395289,"total_money_raised":"$22.5M"},{"name":"Technorati","category_code":"advertising","office":{"type":"Point","coordinates":[-122.393041,37.779558]},"clean_state":"success","city":"San Francisco","country_code":"USA","latitude":37.779558,"longitude":-122.393041,"total_money_raised":"$32.1M"},{"name":"Mahalo","category_code":"web","office":{"type":"Point","coordinates":[-118.487267,34.017606]},"clean_state":"success","city":"Culver City","country_code":"USA","latitude":34.017606,"longitude":-118.487267,"total_money_raised":"$21M"},{"name":"Kyte","category_code":"games_video","office":{"type":"Point","coordinates":[-122.409173,37.788482]},"clean_state":"success","city":"San Francisco","country_code":"USA","latitude":37.788482,"longitude":-122.409173,"total_money_raised":"$23.4M"},{"name":"Sparter","category_code":"games_video","office":{"type":"Point","coordinates":[-95.712891,37.09024]},"clean_state":"success","city":null,"country_code":"USA","latitude":37.09024,"longitude":-95.712891,"total_money_raised":"$0"},{"name":"Info","category_code":"web","office":{"type":"Point","coordinates":[-87.622309,41.885619]},"clean_state":"success","city":"Chicago","country_code":"USA","latitude":41.885619,"longitude":-87.622309,"total_money_raised":"$8.4M"},{"name":"JotSpot","category_code":"web","office":{"type":"Point","coordinates":[-122.159928,37.437328]},"clean_state":"success","city":"Palo Alto","country_code":"USA","latitude":37.437328,"longitude":-122.159928,"total_money_raised":"$5.2M"},{"name":"Mercora","category_code":"web","office":{"type":"Point","coordinates":[-122.012475,37.384239]},"clean_state":"success","city":"Sunnyvale","country_code":"USA","latitude":37.384239,"longitude":-122.012475,"total_money_raised":"$5M"},{"name":"Jingle Networks","category_code":"mobile","office":{"type":"Point","coordinates":[-122.173887,37.480999]},"clean_state":"success","city":"New York","country_code":"USA","latitude":37.480999,"longitude":-122.173887,"total_money_raised":"$88.7M"},{"name":"NetRatings","category_code":"web","office":{"type":"Point","coordinates":[-95.712891,37.09024]},"clean_state":"success","city":"","country_code":"USA","latitude":37.09024,"longitude":-95.712891,"total_money_raised":"$0"},{"name":"Meetup","category_code":"web","office":{"type":"Point","coordinates":[-73.995722,40.72604]},"clean_state":"success","city":"New York","country_code":"USA","latitude":40.72604,"longitude":-73.995722,"total_money_raised":"$18.3M"},{"name":"Wesabe","category_code":"web","office":{"type":"Point","coordinates":[-122.402567,37.793148]},"clean_state":"success","city":"San Francisco","country_code":"USA","latitude":37.793148,"longitude":-122.402567,"total_money_raised":"$4.7M"},{"name":"Jangl SMS","category_code":"web","office":{"type":"Point","coordinates":[-121.907768,37.697805]},"clean_state":"success","city":"Pleasanton","country_code":"USA","latitude":37.697805,"longitude":-121.907768,"total_money_raised":"$9M"},{"name":"Veoh","category_code":"games_video","office":{"type":"Point","coordinates":[-117.20834,32.902266]},"clean_state":"success","city":"San Diego","country_code":"USA","latitude":32.902266,"longitude":-117.20834,"total_money_raised":"$69.8M"},{"name":"SmugMug","category_code":"photo_video","office":{"type":"Point","coordinates":[-122.067692,37.390056]},"clean_state":"success","city":"Mountain View","country_code":"USA","latitude":37.390056,"longitude":-122.067692,"total_money_raised":"$0"},{"name":"Thoof","category_code":"web","office":{"type":"Point","coordinates":[-97.745209,30.268735]},"clean_state":"success","city":"Austin","country_code":"USA","latitude":30.268735,"longitude":-97.745209,"total_money_raised":"$1M"},{"name":"Gannett","category_code":"web","office":{"type":"Point","coordinates":[-77.216585,38.929289]},"clean_state":"success","city":"McLean","country_code":"USA","latitude":38.929289,"longitude":-77.216585,"total_money_raised":"$0"},{"name":"LifeLock","category_code":"security","office":{"type":"Point","coordinates":[-111.938739,33.429859]},"clean_state":"success","city":"Tempe","country_code":"USA","latitude":33.429859,"longitude":-111.938739,"total_money_raised":"$178M"},{"name":"Prosper","category_code":"finance","office":{"type":"Point","coordinates":[-122.402524,37.78976]},"clean_state":"success","city":"San Francisco","country_code":"USA","latitude":37.78976,"longitude":-122.402524,"total_money_raised":"$120M"},{"name":"Stickam","category_code":"games_video","office":{"type":"Point","coordinates":[-118.254558,34.051409]},"clean_state":"success","city":"Los Angeles","country_code":"USA","latitude":34.051409,"longitude":-118.254558,"total_money_raised":"$0"},{"name":"Cisco","category_code":"network_hosting","office":{"type":"Point","coordinates":[-121.95377,37.408802]},"clean_state":"success","city":"San Jose","country_code":"USA","latitude":37.408802,"longitude":-121.95377,"total_money_raised":"$2.5M"},{"name":"Jajah","category_code":"mobile","office":{"type":"Point","coordinates":[-122.0899512,37.4233896]},"clean_state":"success","city":"Mountain View","country_code":"USA","latitude":37.4233896,"longitude":-122.0899512,"total_money_raised":"$33M"},{"name":"blogTV","category_code":"games_video","office":{"type":"Point","coordinates":[34.851612,31.046051]},"clean_state":"success","city":"Ramat Gan","country_code":"ISR","latitude":31.046051,"longitude":34.851612,"total_money_raised":"$3M"},{"name":"Livestream","category_code":"games_video","office":{"type":"Point","coordinates":[-73.995625,40.726155]},"clean_state":"success","city":"New York","country_code":"USA","latitude":40.726155,"longitude":-73.995625,"total_money_raised":"$14.7M"},{"name":"Pando Networks","category_code":"games_video","office":{"type":"Point","coordinates":[-73.99873,40.722655]},"clean_state":"success","city":"New York","country_code":"USA","latitude":40.722655,"longitude":-73.99873,"total_money_raised":"$11M"},{"name":"YouTube","category_code":"games_video","office":{"type":"Point","coordinates":[-122.426804,37.627971]},"clean_state":"success","city":"San Bruno","country_code":"USA","latitude":37.627971,"longitude":-122.426804,"total_money_raised":"$11.5M"},{"name":"AdaptiveBlue","category_code":"games_video","office":{"type":"Point","coordinates":[-74.3372,40.801358]},"clean_state":"success","city":"NYC","country_code":"USA","latitude":40.801358,"longitude":-74.3372,"total_money_raised":"$24M"},{"name":"Ikan","category_code":"web","office":{"type":"Point","coordinates":[-73.563878,41.049051]},"clean_state":"success","city":"Stamford","country_code":"USA","latitude":41.049051,"longitude":-73.563878,"total_money_raised":"$0"},{"name":"GrandCentral","category_code":"mobile","office":{"type":"Point","coordinates":[-121.932202,37.465645]},"clean_state":"success","city":"Fremont","country_code":"USA","latitude":37.465645,"longitude":-121.932202,"total_money_raised":"$4M"},{"name":"Topix","category_code":"web","office":{"type":"Point","coordinates":[-122.151198,37.44296]},"clean_state":"success","city":"Palo Alto","country_code":"USA","latitude":37.44296,"longitude":-122.151198,"total_money_raised":"$15M"},{"name":"Pownce","category_code":"web","office":{"type":"Point","coordinates":[-122.397224,37.762541]},"clean_state":"success","city":"San Francisco","country_code":"USA","latitude":37.762541,"longitude":-122.397224,"total_money_raised":"$0"},{"name":"Jobster","category_code":"search","office":{"type":"Point","coordinates":[-122.357242,47.617682]},"clean_state":"success","city":"Seattle","country_code":"USA","latitude":47.617682,"longitude":-122.357242,"total_money_raised":"$52.5M"},{"name":"CriticalMetrics","category_code":"web","office":{"type":"Point","coordinates":[-119.306607,37.269175]},"clean_state":"success","city":null,"country_code":"USA","latitude":37.269175,"longitude":-119.306607,"total_money_raised":"$100k"},{"name":"AllPeers","category_code":"web","office":{"type":"Point","coordinates":[-1.255824,51.752276]},"clean_state":"success","city":"Oxford","country_code":"GBR","latitude":51.752276,"longitude":-1.255824,"total_money_raised":"$0"},{"name":"ZenZui","category_code":"mobile","office":{"type":"Point","coordinates":[-122.347533,47.620716]},"clean_state":"success","city":"Seattle","country_code":"USA","latitude":47.620716,"longitude":-122.347533,"total_money_raised":"$0"},{"name":"Spock","category_code":"search","office":{"type":"Point","coordinates":[-122.217964,37.488336]},"clean_state":"success","city":"SCHUYLER LAKE","country_code":"USA","latitude":37.488336,"longitude":-122.217964,"total_money_raised":"$7M"},{"name":"Revision3","category_code":"games_video","office":{"type":"Point","coordinates":[-122.388243,37.757758]},"clean_state":"success","city":"San Francisco","country_code":"USA","latitude":37.757758,"longitude":-122.388243,"total_money_raised":"$9M"},{"name":"SodaHead","category_code":"web","office":{"type":"Point","coordinates":[-119.306607,37.269175]},"clean_state":"success","city":"Encino","country_code":"USA","latitude":37.269175,"longitude":-119.306607,"total_money_raised":"$12.7M"},{"name":"Wize","category_code":"ecommerce","office":{"type":"Point","coordinates":[-122.302262,37.559287]},"clean_state":"success","city":"Burlingame","country_code":"USA","latitude":37.559287,"longitude":-122.302262,"total_money_raised":"$4.99M"},{"name":"AllofMP3","category_code":"games_video","office":{"type":"Point","coordinates":[37.617633,55.755786]},"clean_state":"success","city":"Moscow","country_code":"RUS","latitude":55.755786,"longitude":37.617633,"total_money_raised":"$0"},{"name":"There","category_code":"games_video","office":{"type":"Point","coordinates":[-122.302149,37.553385]},"clean_state":"success","city":"San Mateo","country_code":"USA","latitude":37.553385,"longitude":-122.302149,"total_money_raised":"$0"},{"name":"CastTV","category_code":"games_video","office":{"type":"Point","coordinates":[-122.393913,37.780716]},"clean_state":"success","city":"San Francisco","country_code":"USA","latitude":37.780716,"longitude":-122.393913,"total_money_raised":"$3.1M"},{"name":"EQO","category_code":"mobile","office":{"type":"Point","coordinates":[-123.138565,49.263588]},"clean_state":"success","city":"Vancouver","country_code":"CAN","latitude":49.263588,"longitude":-123.138565,"total_money_raised":"$12.5M"},{"name":"SellABand","category_code":"games_video","office":{"type":"Point","coordinates":[6.553452,51.808933]},"clean_state":"success","city":"46395 Bocholt","country_code":"DEU","latitude":51.808933,"longitude":6.553452,"total_money_raised":"$5M"},{"name":"iSkoot","category_code":"mobile","office":{"type":"Point","coordinates":[-71.118487,42.375392]},"clean_state":"success","city":"Cambridge","country_code":"USA","latitude":42.375392,"longitude":-71.118487,"total_money_raised":"$32.2M"},{"name":"iSkoot","category_code":"mobile","office":{"type":"Point","coordinates":[-122.396744,37.780134]},"clean_state":"success","city":"San Francisco","country_code":"USA","latitude":37.780134,"longitude":-122.396744,"total_money_raised":"$32.2M"},{"name":"Funny Or Die","category_code":"games_video","office":{"type":"Point","coordinates":[-122.137444,37.421621]},"clean_state":"success","city":"San Mateo","country_code":"USA","latitude":37.421621,"longitude":-122.137444,"total_money_raised":"$18M"},{"name":"Steorn","category_code":"web","office":{"type":"Point","coordinates":[-6.229255,53.354997]},"clean_state":"success","city":"Dublin","country_code":"IRL","latitude":53.354997,"longitude":-6.229255,"total_money_raised":"$0"},{"name":"Yahoo!","category_code":"web","office":{"type":"Point","coordinates":[-122.025485,37.418531]},"clean_state":"success","city":"Sunnyvale","country_code":"USA","latitude":37.418531,"longitude":-122.025485,"total_money_raised":"$6.8M"},{"name":"MeeVee","category_code":"games_video","office":{"type":"Point","coordinates":[-122.341715,37.590339]},"clean_state":"success","city":"Burlingame","country_code":"USA","latitude":37.590339,"longitude":-122.341715,"total_money_raised":"$25M"},{"name":"Zlio","category_code":"ecommerce","office":{"type":"Point","coordinates":[2.381836,48.862825]},"clean_state":"success","city":"Paris","country_code":"FRA","latitude":48.862825,"longitude":2.381836,"total_money_raised":"$4M"},{"name":"ClipBlast!","category_code":"web","office":{"type":"Point","coordinates":[-118.756618,34.155211]},"clean_state":"success","city":"Agoura Hills","country_code":"USA","latitude":34.155211,"longitude":-118.756618,"total_money_raised":"$0"},{"name":"Jaiku","category_code":"mobile","office":{"type":"Point","coordinates":[24.93105,60.16377]},"clean_state":"success","city":"Helsinki","country_code":"FIN","latitude":60.16377,"longitude":24.93105,"total_money_raised":"$0"},{"name":"Spotplex","category_code":"web","office":{"type":"Point","coordinates":[-121.940749,37.380101]},"clean_state":"success","city":"Santa Clara","country_code":"USA","latitude":37.380101,"longitude":-121.940749,"total_money_raised":"$450k"},{"name":"TripUp","category_code":"web","office":{"type":"Point","coordinates":[-118.243425,34.052187]},"clean_state":"success","city":"Los Angeles","country_code":"USA","latitude":34.052187,"longitude":-118.243425,"total_money_raised":"$0"},{"name":"Wakoopa","category_code":"web","office":{"type":"Point","coordinates":[4.8948623,52.3745228]},"clean_state":"success","city":"Amsterdam","country_code":"NLD","latitude":52.3745228,"longitude":4.8948623,"total_money_raised":"$1M"},{"name":"Coghead","category_code":"web","office":{"type":"Point","coordinates":[-122.221717,37.476479]},"clean_state":"success","city":"Redwood City","country_code":"USA","latitude":37.476479,"longitude":-122.221717,"total_money_raised":"$11.2M"},{"name":"Fleck","category_code":"web","office":{"type":"Point","coordinates":[4.908556,52.375595]},"clean_state":"success","city":"Amsterdam","country_code":"NLD","latitude":52.375595,"longitude":4.908556,"total_money_raised":"\u20ac225k"},{"name":"Zamzar","category_code":"web","office":{"type":"Point","coordinates":[-1.3610845,50.9444598]},"clean_state":"success","city":"Southampton","country_code":"GBR","latitude":50.9444598,"longitude":-1.3610845,"total_money_raised":"$0"},{"name":"Zooomr","category_code":"web","office":{"type":"Point","coordinates":[-122.419204,37.775196]},"clean_state":"success","city":"San Francisco","country_code":"USA","latitude":37.775196,"longitude":-122.419204,"total_money_raised":"$50k"},{"name":"blinkx","category_code":"games_video","office":{"type":"Point","coordinates":[-122.395089,37.793819]},"clean_state":"success","city":"San Francisco","country_code":"USA","latitude":37.793819,"longitude":-122.395089,"total_money_raised":"$0"},{"name":"SideStep","category_code":"web","office":{"type":"Point","coordinates":[-121.977853,37.374998]},"clean_state":"success","city":"Santa Clara","country_code":"USA","latitude":37.374998,"longitude":-121.977853,"total_money_raised":"$32M"},{"name":"Intel","category_code":"hardware","office":{"type":"Point","coordinates":[-121.96761,37.384949]},"clean_state":"success","city":"Santa Clara","country_code":"USA","latitude":37.384949,"longitude":-121.96761,"total_money_raised":"$0"},{"name":"Farecast","category_code":"search","office":{"type":"Point","coordinates":[-122.359397,47.620982]},"clean_state":"success","city":"Seattle","country_code":"USA","latitude":47.620982,"longitude":-122.359397,"total_money_raised":"$20.6M"},{"name":"Yelp","category_code":"search","office":{"type":"Point","coordinates":[-122.402195,37.786183]},"clean_state":"success","city":"San Francisco","country_code":"USA","latitude":37.786183,"longitude":-122.402195,"total_money_raised":"$90M"},{"name":"coRank","category_code":"web","office":{"type":"Point","coordinates":[-122.02421,37.36965]},"clean_state":"success","city":"Sunnyvale","country_code":"USA","latitude":37.36965,"longitude":-122.02421,"total_money_raised":"$0"},{"name":"KickApps","category_code":"enterprise","office":{"type":"Point","coordinates":[-73.9843328,40.7516611]},"clean_state":"success","city":"New York","country_code":"USA","latitude":40.7516611,"longitude":-73.9843328,"total_money_raised":"$32M"},{"name":"KickApps","category_code":"enterprise","office":{"type":"Point","coordinates":[-118.468707,33.991101]},"clean_state":"success","city":"Venice","country_code":"USA","latitude":33.991101,"longitude":-118.468707,"total_money_raised":"$32M"},{"name":"KickApps","category_code":"enterprise","office":{"type":"Point","coordinates":[-122.4016144,37.7891086]},"clean_state":"success","city":"San Francisco","country_code":"USA","latitude":37.7891086,"longitude":-122.4016144,"total_money_raised":"$32M"},{"name":"KickApps","category_code":"enterprise","office":{"type":"Point","coordinates":[-0.1356235,51.5094731]},"clean_state":"success","city":"London","country_code":"GBR","latitude":51.5094731,"longitude":-0.1356235,"total_money_raised":"$32M"},{"name":"ConVerdge","category_code":"enterprise","office":{"type":"Point","coordinates":[-118.495155,34.0126379]},"clean_state":"success","city":"Santa Monica","country_code":"USA","latitude":34.0126379,"longitude":-118.495155,"total_money_raised":"$0"},{"name":"Pageflakes","category_code":"web","office":{"type":"Point","coordinates":[-122.414689,37.758113]},"clean_state":"success","city":"San Francisco","country_code":"USA","latitude":37.758113,"longitude":-122.414689,"total_money_raised":"$4.1M"},{"name":"Instructables","category_code":"web","office":{"type":"Point","coordinates":[-122.4058887,37.7791761]},"clean_state":"success","city":"San Francisco","country_code":"USA","latitude":37.7791761,"longitude":-122.4058887,"total_money_raised":"$0"},{"name":"Swivel","category_code":"search","office":{"type":"Point","coordinates":[-122.395184,37.789268]},"clean_state":"success","city":"San Francisco","country_code":"USA","latitude":37.789268,"longitude":-122.395184,"total_money_raised":"$2M"},{"name":"RockYou","category_code":"games_video","office":{"type":"Point","coordinates":[-122.206893,37.484619]},"clean_state":"success","city":"Redwood City","country_code":"USA","latitude":37.484619,"longitude":-122.206893,"total_money_raised":"$136M"},{"name":"BabyCenter","category_code":"web","office":{"type":"Point","coordinates":[-122.397977,37.778076]},"clean_state":"success","city":"San Francisco","country_code":"USA","latitude":37.778076,"longitude":-122.397977,"total_money_raised":"$0"},{"name":"PlaceBlogger","category_code":"web","office":{"type":"Point","coordinates":[-95.712891,37.09024]},"clean_state":"success","city":"","country_code":"USA","latitude":37.09024,"longitude":-95.712891,"total_money_raised":"$5M"},{"name":"Flickr","category_code":"web","office":{"type":"Point","coordinates":[-122.025485,37.418531]},"clean_state":"success","city":"Sunnyvale","country_code":"USA","latitude":37.418531,"longitude":-122.025485,"total_money_raised":"$0"},{"name":"CrowdVine","category_code":"web","office":{"type":"Point","coordinates":[-122.511687,37.90077]},"clean_state":"success","city":"Mill Valley","country_code":"USA","latitude":37.90077,"longitude":-122.511687,"total_money_raised":"$0"},{"name":"TripHub","category_code":"web","office":{"type":"Point","coordinates":[-122.338793,47.614653]},"clean_state":"success","city":"Seattle","country_code":"USA","latitude":47.614653,"longitude":-122.338793,"total_money_raised":"$0"},{"name":"Slide","category_code":"public_relations","office":{"type":"Point","coordinates":[-122.392144,37.781427]},"clean_state":"success","city":"San Francisco","country_code":"USA","latitude":37.781427,"longitude":-122.392144,"total_money_raised":"$78M"},{"name":"WeFi","category_code":"mobile","office":{"type":"Point","coordinates":[-95.712891,37.09024]},"clean_state":"success","city":"Fairfax","country_code":"USA","latitude":37.09024,"longitude":-95.712891,"total_money_raised":"$10M"},{"name":"Bebo","category_code":"web","office":{"type":"Point","coordinates":[-122.401116,37.782103]},"clean_state":"success","city":"San Francisco","country_code":"USA","latitude":37.782103,"longitude":-122.401116,"total_money_raised":"$15M"},{"name":"FeedBurner","category_code":"web","office":{"type":"Point","coordinates":[-87.628912,41.889474]},"clean_state":"success","city":"Chicago","country_code":"USA","latitude":41.889474,"longitude":-87.628912,"total_money_raised":"$8M"},{"name":"TVtrip","category_code":"web","office":{"type":"Point","coordinates":[2.350987,48.856667]},"clean_state":"success","city":"Paris","country_code":"FRA","latitude":48.856667,"longitude":2.350987,"total_money_raised":"$13.8M"},{"name":"TheFind","category_code":"ecommerce","office":{"type":"Point","coordinates":[-122.073463,37.391502]},"clean_state":"success","city":"Mountain View","country_code":"USA","latitude":37.391502,"longitude":-122.073463,"total_money_raised":"$26M"},{"name":"Zazzle","category_code":"ecommerce","office":{"type":"Point","coordinates":[-122.2013557,37.5108541]},"clean_state":"success","city":"Redwood City","country_code":"USA","latitude":37.5108541,"longitude":-122.2013557,"total_money_raised":"$46M"},{"name":"Dogster","category_code":"web","office":{"type":"Point","coordinates":[-122.400909,37.762681]},"clean_state":"success","city":"San Francisco","country_code":"USA","latitude":37.762681,"longitude":-122.400909,"total_money_raised":"$1M"},{"name":"Sway","category_code":"advertising","office":{"type":"Point","coordinates":[-89.522805,43.090756]},"clean_state":"success","city":"Middleton","country_code":"USA","latitude":43.090756,"longitude":-89.522805,"total_money_raised":"$2M"},{"name":"CornerWorld","category_code":"public_relations","office":{"type":"Point","coordinates":[-96.771281,32.914662]},"clean_state":"success","city":"Dallas","country_code":"USA","latitude":32.914662,"longitude":-96.771281,"total_money_raised":"$0"},{"name":"adBrite","category_code":"advertising","office":{"type":"Point","coordinates":[-122.40184,37.779026]},"clean_state":"success","city":"San Francisco","country_code":"USA","latitude":37.779026,"longitude":-122.40184,"total_money_raised":"$40.4M"},{"name":"WatZatSong","category_code":"web","office":{"type":"Point","coordinates":[2.381514,48.866323]},"clean_state":"success","city":"Paris","country_code":"FRA","latitude":48.866323,"longitude":2.381514,"total_money_raised":"$0"},{"name":"Loomia","category_code":"web","office":{"type":"Point","coordinates":[-122.404869,37.796396]},"clean_state":"success","city":"San Francisco","country_code":"USA","latitude":37.796396,"longitude":-122.404869,"total_money_raised":"$7.5M"},{"name":"Newsvine","category_code":"web","office":{"type":"Point","coordinates":[-122.358484,47.618599]},"clean_state":"success","city":"Seattle","country_code":"USA","latitude":47.618599,"longitude":-122.358484,"total_money_raised":"$1.25M"},{"name":"FlickIM","category_code":"mobile","office":{"type":"Point","coordinates":[-122.269259,37.870744]},"clean_state":"success","city":"Berkeley","country_code":"USA","latitude":37.870744,"longitude":-122.269259,"total_money_raised":"$1.6M"},{"name":"Jamendo","category_code":"other","office":{"type":"Point","coordinates":[6.1329985,49.6026778]},"clean_state":"success","city":"Luxembourg","country_code":"LUX","latitude":49.6026778,"longitude":6.1329985,"total_money_raised":"$0"},{"name":"Terabitz","category_code":"web","office":{"type":"Point","coordinates":[-122.159928,37.437328]},"clean_state":"success","city":"Palo Alto","country_code":"USA","latitude":37.437328,"longitude":-122.159928,"total_money_raised":"$10M"},{"name":"Eventbrite","category_code":"web","office":{"type":"Point","coordinates":[-122.39071,37.779507]},"clean_state":"success","city":"San Francisco","country_code":"USA","latitude":37.779507,"longitude":-122.39071,"total_money_raised":"$140M"},{"name":"iLike","category_code":"games_video","office":{"type":"Point","coordinates":[-122.323408,47.615313]},"clean_state":"success","city":"Seattle","country_code":"USA","latitude":47.615313,"longitude":-122.323408,"total_money_raised":"$16.5M"},{"name":"Cuts","category_code":"web","office":{"type":"Point","coordinates":[-117.163841,32.718834]},"clean_state":"success","city":"San Diego","country_code":"USA","latitude":32.718834,"longitude":-117.163841,"total_money_raised":"$0"},{"name":"Ticketmaster","category_code":"web","office":{"type":"Point","coordinates":[-118.3835957,34.0906602]},"clean_state":"success","city":"West Hollywood","country_code":"USA","latitude":34.0906602,"longitude":-118.3835957,"total_money_raised":"$0"},{"name":"Edgeio","category_code":"ecommerce","office":{"type":"Point","coordinates":[-122.161674,37.443058]},"clean_state":"success","city":"Palo Alto","country_code":"USA","latitude":37.443058,"longitude":-122.161674,"total_money_raised":"$6.5M"},{"name":"Kaboodle","category_code":"ecommerce","office":{"type":"Point","coordinates":[-122.036301,37.382162]},"clean_state":"success","city":"Sunnyvale","country_code":"USA","latitude":37.382162,"longitude":-122.036301,"total_money_raised":"$5M"},{"name":"Conduit","category_code":"advertising","office":{"type":"Point","coordinates":[-122.325248,37.561877]},"clean_state":"success","city":"Foster City","country_code":"USA","latitude":37.561877,"longitude":-122.325248,"total_money_raised":"$110M"},{"name":"Carbonite","category_code":"network_hosting","office":{"type":"Point","coordinates":[-71.076869,42.350571]},"clean_state":"success","city":"Boston","country_code":"USA","latitude":42.350571,"longitude":-71.076869,"total_money_raised":"$66M"},{"name":"Go2Web20","category_code":"web","office":{"type":"Point","coordinates":[34.7595,32.0554]},"clean_state":"success","city":"Tel Aviv","country_code":"ISR","latitude":32.0554,"longitude":34.7595,"total_money_raised":"$0"},{"name":"Box","category_code":"network_hosting","office":{"type":"Point","coordinates":[-122.143701,37.425801]},"clean_state":"success","city":"Los Altos","country_code":"USA","latitude":37.425801,"longitude":-122.143701,"total_money_raised":"$409M"},{"name":"TechnologyGuide","category_code":"web","office":{"type":"Point","coordinates":[-84.351532,39.06685]},"clean_state":"success","city":"Cincinnati","country_code":"USA","latitude":39.06685,"longitude":-84.351532,"total_money_raised":"$0"},{"name":"coComment","category_code":"web","office":{"type":"Point","coordinates":[6.139959,46.20381]},"clean_state":"success","city":"Geneva","country_code":"CHE","latitude":46.20381,"longitude":6.139959,"total_money_raised":"$5.6M"},{"name":"Wink","category_code":"search","office":{"type":"Point","coordinates":[-122.072981,37.40047]},"clean_state":"success","city":"Mountain View","country_code":"USA","latitude":37.40047,"longitude":-122.072981,"total_money_raised":"$6.2M"},{"name":"LinkedIn","category_code":"social","office":{"type":"Point","coordinates":[-122.073635,37.423258]},"clean_state":"success","city":"Mountain View","country_code":"USA","latitude":37.423258,"longitude":-122.073635,"total_money_raised":"$200M"},{"name":"Hotelicopter","category_code":"web","office":{"type":"Point","coordinates":[-78.48158,38.030823]},"clean_state":"success","city":"Charlottesville","country_code":"USA","latitude":38.030823,"longitude":-78.48158,"total_money_raised":"$5M"},{"name":"GigaOM","category_code":"news","office":{"type":"Point","coordinates":[-122.419204,37.775196]},"clean_state":"success","city":"San Francisco","country_code":"USA","latitude":37.775196,"longitude":-122.419204,"total_money_raised":"$14.3M"},{"name":"GigaOM","category_code":"news","office":{"type":"Point","coordinates":[-74.0059731,40.7143528]},"clean_state":"success","city":"New York","country_code":"USA","latitude":40.7143528,"longitude":-74.0059731,"total_money_raised":"$14.3M"},{"name":"Techmeme","category_code":"web","office":{"type":"Point","coordinates":[-122.3985871,37.7618242]},"clean_state":"success","city":"San Francisco","country_code":"USA","latitude":37.7618242,"longitude":-122.3985871,"total_money_raised":"$0"},{"name":"Seesmic","category_code":"web","office":{"type":"Point","coordinates":[-122.419204,37.775196]},"clean_state":"success","city":"San Francisco","country_code":"USA","latitude":37.775196,"longitude":-122.419204,"total_money_raised":"$16M"},{"name":"Redfin","category_code":"real_estate","office":{"type":"Point","coordinates":[-122.333253,47.603122]},"clean_state":"success","city":"Seattle","country_code":"USA","latitude":47.603122,"longitude":-122.333253,"total_money_raised":"$96.8M"},{"name":"RegOnline","category_code":"software","office":{"type":"Point","coordinates":[-105.1110024,39.9195028]},"clean_state":"success","city":"San Diego","country_code":"USA","latitude":39.9195028,"longitude":-105.1110024,"total_money_raised":"$0"},{"name":"Zvents","category_code":"web","office":{"type":"Point","coordinates":[-122.301534,37.553121]},"clean_state":"success","city":"San Mateo","country_code":"USA","latitude":37.553121,"longitude":-122.301534,"total_money_raised":"$31.2M"},{"name":"Oodle","category_code":"social","office":{"type":"Point","coordinates":[-122.324621,37.563585]},"clean_state":"success","city":"San Mateo","country_code":"USA","latitude":37.563585,"longitude":-122.324621,"total_money_raised":"$23.1M"},{"name":"oDesk","category_code":"web","office":{"type":"Point","coordinates":[-122.178557,37.479952]},"clean_state":"success","city":"Redwood City","country_code":"USA","latitude":37.479952,"longitude":-122.178557,"total_money_raised":"$44M"},{"name":"Scripps Networks Interactive","category_code":"web","office":{"type":"Point","coordinates":[-95.712891,37.09024]},"clean_state":"success","city":"Knoxville","country_code":"USA","latitude":37.09024,"longitude":-95.712891,"total_money_raised":"$10M"},{"name":"Simply Hired","category_code":"search","office":{"type":"Point","coordinates":[-122.0780632,37.4219165]},"clean_state":"success","city":"Sunnyvale","country_code":"USA","latitude":37.4219165,"longitude":-122.0780632,"total_money_raised":"$22.3M"},{"name":"ooma","category_code":"hardware","office":{"type":"Point","coordinates":[-122.116026,37.451958]},"clean_state":"success","city":"Palo Alto","country_code":"USA","latitude":37.451958,"longitude":-122.116026,"total_money_raised":"$81.3M"},{"name":"Cofoundr","category_code":"network_hosting","office":{"type":"Point","coordinates":[-122.420903,37.796164]},"clean_state":"success","city":null,"country_code":"USA","latitude":37.796164,"longitude":-122.420903,"total_money_raised":"$0"},{"name":"Recipezaar","category_code":"web","office":{"type":"Point","coordinates":[-122.450942,47.420728]},"clean_state":"success","city":"Vashon","country_code":"USA","latitude":47.420728,"longitude":-122.450942,"total_money_raised":"$0"},{"name":"Ujogo","category_code":"web","office":{"type":"Point","coordinates":[-122.392861,37.76785]},"clean_state":"success","city":"San Francisco","country_code":"USA","latitude":37.76785,"longitude":-122.392861,"total_money_raised":"$0"},{"name":"stylediary","category_code":"web","office":{"type":"Point","coordinates":[-118.350486,34.070436]},"clean_state":"success","city":"","country_code":"USA","latitude":34.070436,"longitude":-118.350486,"total_money_raised":"$0"},{"name":"ictv","category_code":"web","office":{"type":"Point","coordinates":[-121.96533,37.255118]},"clean_state":"success","city":"Los Gatos","country_code":"USA","latitude":37.255118,"longitude":-121.96533,"total_money_raised":"$0"},{"name":"Gumiyo","category_code":"web","office":{"type":"Point","coordinates":[-118.601532,34.184598]},"clean_state":"success","city":"Woodland Hills","country_code":"USA","latitude":34.184598,"longitude":-118.601532,"total_money_raised":"$0"},{"name":"MyPublicInfo","category_code":"web","office":{"type":"Point","coordinates":[-77.072003,38.897428]},"clean_state":"success","city":"Arlington","country_code":"USA","latitude":38.897428,"longitude":-77.072003,"total_money_raised":"$0"},{"name":"GoingOn","category_code":"software","office":{"type":"Point","coordinates":[-122.392142,37.782263]},"clean_state":"success","city":"San Francisco","country_code":"USA","latitude":37.782263,"longitude":-122.392142,"total_money_raised":"$8.5M"},{"name":"Flixster","category_code":"web","office":{"type":"Point","coordinates":[-122.406676,37.766909]},"clean_state":"success","city":"San Francisco","country_code":"USA","latitude":37.766909,"longitude":-122.406676,"total_money_raised":"$7.18M"},{"name":"Checkster","category_code":"web","office":{"type":"Point","coordinates":[-122.547445,37.905544]},"clean_state":"success","city":"Mill Valley","country_code":"USA","latitude":37.905544,"longitude":-122.547445,"total_money_raised":"$0"},{"name":"revlayer","category_code":"advertising","office":{"type":"Point","coordinates":[-73.985506,40.757929]},"clean_state":"success","city":"New York","country_code":"USA","latitude":40.757929,"longitude":-73.985506,"total_money_raised":"$0"},{"name":"Piczo","category_code":"network_hosting","office":{"type":"Point","coordinates":[-122.398479,37.793703]},"clean_state":"success","city":"San Francisco","country_code":"USA","latitude":37.793703,"longitude":-122.398479,"total_money_raised":"$11M"},{"name":"Parakey","category_code":"web","office":{"type":"Point","coordinates":[-122.072981,37.40047]},"clean_state":"success","city":"Mountain View","country_code":"USA","latitude":37.40047,"longitude":-122.072981,"total_money_raised":"$0"},{"name":"Spreadshirt","category_code":"advertising","office":{"type":"Point","coordinates":[-80.004195,40.437985]},"clean_state":"success","city":"Pittsburgh","country_code":"USA","latitude":40.437985,"longitude":-80.004195,"total_money_raised":"$12.7M"},{"name":"IceRocket","category_code":"search","office":{"type":"Point","coordinates":[-96.797111,32.781078]},"clean_state":"success","city":"Dallas","country_code":"USA","latitude":32.781078,"longitude":-96.797111,"total_money_raised":"$300k"},{"name":"spigit","category_code":"software","office":{"type":"Point","coordinates":[-121.8731805,37.6637279]},"clean_state":"success","city":"Pleasanton","country_code":"USA","latitude":37.6637279,"longitude":-121.8731805,"total_money_raised":"$55.6M"},{"name":"spigit","category_code":"software","office":{"type":"Point","coordinates":[-77.3592746,38.9590083]},"clean_state":"success","city":"Reston","country_code":"USA","latitude":38.9590083,"longitude":-77.3592746,"total_money_raised":"$55.6M"},{"name":"spigit","category_code":"software","office":{"type":"Point","coordinates":[-0.1394759,51.5170385]},"clean_state":"success","city":"London","country_code":"GBR","latitude":51.5170385,"longitude":-0.1394759,"total_money_raised":"$55.6M"},{"name":"Socialtext","category_code":"enterprise","office":{"type":"Point","coordinates":[-122.1615,37.442949]},"clean_state":"success","city":"Palo Alto","country_code":"USA","latitude":37.442949,"longitude":-122.1615,"total_money_raised":"$46.8M"},{"name":"Bazaarvoice","category_code":"software","office":{"type":"Point","coordinates":[-97.717667,30.407545]},"clean_state":"success","city":"Austin","country_code":"USA","latitude":30.407545,"longitude":-97.717667,"total_money_raised":"$131M"},{"name":"ConnectMeAnywhere","category_code":"web","office":{"type":"Point","coordinates":[-0.205349,51.514935]},"clean_state":"success","city":"London W11 2HX","country_code":"GBR","latitude":51.514935,"longitude":-0.205349,"total_money_raised":"$0"},{"name":"Clipperz","category_code":"web","office":{"type":"Point","coordinates":[11.978686,44.418166]},"clean_state":"success","city":"Bagnacavallo","country_code":"ITA","latitude":44.418166,"longitude":11.978686,"total_money_raised":"$0"},{"name":"LiveWorld","category_code":"web","office":{"type":"Point","coordinates":[-121.979453,37.321798]},"clean_state":"success","city":"San Jose","country_code":"USA","latitude":37.321798,"longitude":-121.979453,"total_money_raised":"$0"},{"name":"LiveWorld","category_code":"web","office":{"type":"Point","coordinates":[-0.126236,51.500152]},"clean_state":"success","city":"London","country_code":"GBR","latitude":51.500152,"longitude":-0.126236,"total_money_raised":"$0"},{"name":"PowerReviews","category_code":"social","office":{"type":"Point","coordinates":[-122.393041,37.779558]},"clean_state":"success","city":"San Francisco","country_code":"USA","latitude":37.779558,"longitude":-122.393041,"total_money_raised":"$40.1M"},{"name":"PowerReviews","category_code":"social","office":{"type":"Point","coordinates":[-0.104408,51.527099]},"clean_state":"success","city":"London","country_code":"GBR","latitude":51.527099,"longitude":-0.104408,"total_money_raised":"$40.1M"},{"name":"hi5","category_code":"games_video","office":{"type":"Point","coordinates":[-122.400558,37.788668]},"clean_state":"success","city":"San Francisco","country_code":"USA","latitude":37.788668,"longitude":-122.400558,"total_money_raised":"$52M"},{"name":"Nintendo","category_code":"games_video","office":{"type":"Point","coordinates":[138.252924,36.204824]},"clean_state":"success","city":null,"country_code":"JPN","latitude":36.204824,"longitude":138.252924,"total_money_raised":"$0"},{"name":"Tagged","category_code":"social","office":{"type":"Point","coordinates":[-122.4186,37.7753]},"clean_state":"success","city":"San Francisco","country_code":"USA","latitude":37.7753,"longitude":-122.4186,"total_money_raised":"$28.7M"},{"name":"37signals","category_code":"public_relations","office":{"type":"Point","coordinates":[-87.6557234,41.8892178]},"clean_state":"success","city":"Chicago","country_code":"USA","latitude":41.8892178,"longitude":-87.6557234,"total_money_raised":"$0"},{"name":"ScanScout","category_code":"advertising","office":{"type":"Point","coordinates":[-71.051931,42.340889]},"clean_state":"success","city":"Boston","country_code":"USA","latitude":42.340889,"longitude":-71.051931,"total_money_raised":"$17.5M"},{"name":"ScanScout","category_code":"advertising","office":{"type":"Point","coordinates":[-73.993158,40.739833]},"clean_state":"success","city":"New York","country_code":"USA","latitude":40.739833,"longitude":-73.993158,"total_money_raised":"$17.5M"},{"name":"ScanScout","category_code":"advertising","office":{"type":"Point","coordinates":[-118.459995,34.050887]},"clean_state":"success","city":"Los Angeles","country_code":"USA","latitude":34.050887,"longitude":-118.459995,"total_money_raised":"$17.5M"},{"name":"Cerado","category_code":"web","office":{"type":"Point","coordinates":[-122.415375,37.774321]},"clean_state":"success","city":"Palo Alto","country_code":"USA","latitude":37.774321,"longitude":-122.415375,"total_money_raised":"$0"},{"name":"Jaxtr","category_code":"mobile","office":{"type":"Point","coordinates":[-122.18676,37.451026]},"clean_state":"success","city":"Menlo Park","country_code":"USA","latitude":37.451026,"longitude":-122.18676,"total_money_raised":"$21.5M"},{"name":"ONEsite","category_code":"other","office":{"type":"Point","coordinates":[-97.5736,35.612679]},"clean_state":"success","city":"Oklahoma City","country_code":"USA","latitude":35.612679,"longitude":-97.5736,"total_money_raised":"$0"},{"name":"introNetworks","category_code":"web","office":{"type":"Point","coordinates":[-119.641821,34.42071]},"clean_state":"success","city":"Montecito","country_code":"USA","latitude":34.42071,"longitude":-119.641821,"total_money_raised":"$2.7M"},{"name":"Going","category_code":"web","office":{"type":"Point","coordinates":[-71.060864,42.355672]},"clean_state":"success","city":"Boston","country_code":"USA","latitude":42.355672,"longitude":-71.060864,"total_money_raised":"$5M"},{"name":"Wallhogs","category_code":"public_relations","office":{"type":"Point","coordinates":[-79.462703,40.30305]},"clean_state":"success","city":"Greensburg","country_code":"USA","latitude":40.30305,"longitude":-79.462703,"total_money_raised":"$0"},{"name":"NetSuite","category_code":"enterprise","office":{"type":"Point","coordinates":[-122.327323,37.536172]},"clean_state":"success","city":"San Mateo","country_code":"USA","latitude":37.536172,"longitude":-122.327323,"total_money_raised":"$1.5M"},{"name":"Jaman","category_code":"games_video","office":{"type":"Point","coordinates":[-122.327323,37.536172]},"clean_state":"success","city":"San Mateo","country_code":"USA","latitude":37.536172,"longitude":-122.327323,"total_money_raised":"$0"},{"name":"Respectance","category_code":"web","office":{"type":"Point","coordinates":[-122.321836,37.55909]},"clean_state":"success","city":"San Mateo","country_code":"USA","latitude":37.55909,"longitude":-122.321836,"total_money_raised":"$1.75M"},{"name":"GoLightly","category_code":"software","office":{"type":"Point","coordinates":[-122.537302,37.898575]},"clean_state":"success","city":"Mill Valley","country_code":"USA","latitude":37.898575,"longitude":-122.537302,"total_money_raised":"$0"},{"name":"DZOIC","category_code":"web","office":{"type":"Point","coordinates":[-95.712891,37.09024]},"clean_state":"success","city":null,"country_code":"USA","latitude":37.09024,"longitude":-95.712891,"total_money_raised":"$0"},{"name":"PeerMe","category_code":"games_video","office":{"type":"Point","coordinates":[-122.090188,37.419819]},"clean_state":"success","city":"Mountain View","country_code":"USA","latitude":37.419819,"longitude":-122.090188,"total_money_raised":"$5M"},{"name":"eBuddy","category_code":"messaging","office":{"type":"Point","coordinates":[4.8919457,52.3640933]},"clean_state":"success","city":"Amsterdam","country_code":"NLD","latitude":52.3640933,"longitude":4.8919457,"total_money_raised":"\u20ac11.5M"},{"name":"eBuddy","category_code":"messaging","office":{"type":"Point","coordinates":[-122.410943,37.787683]},"clean_state":"success","city":"San Francisco","country_code":"USA","latitude":37.787683,"longitude":-122.410943,"total_money_raised":"\u20ac11.5M"},{"name":"eBuddy","category_code":"messaging","office":{"type":"Point","coordinates":[-0.126236,51.500152]},"clean_state":"success","city":"Singapore","country_code":"SGP","latitude":51.500152,"longitude":-0.126236,"total_money_raised":"\u20ac11.5M"},{"name":"Kiptronic","category_code":"advertising","office":{"type":"Point","coordinates":[-122.402349,37.792394]},"clean_state":"success","city":"San Francisco","country_code":"USA","latitude":37.792394,"longitude":-122.402349,"total_money_raised":"$7.3M"},{"name":"Grockit","category_code":"social","office":{"type":"Point","coordinates":[-122.419204,37.775196]},"clean_state":"success","city":"San Francisco","country_code":"USA","latitude":37.775196,"longitude":-122.419204,"total_money_raised":"$44.7M"},{"name":"CollegeWikis","category_code":"web","office":{"type":"Point","coordinates":[-95.712891,37.09024]},"clean_state":"success","city":null,"country_code":"USA","latitude":37.09024,"longitude":-95.712891,"total_money_raised":"$2M"},{"name":"Zenfolio","category_code":"network_hosting","office":{"type":"Point","coordinates":[-122.1802812,37.4484914]},"clean_state":"success","city":"Menlo Park","country_code":"USA","latitude":37.4484914,"longitude":-122.1802812,"total_money_raised":"$0"},{"name":"FeVote","category_code":"web","office":{"type":"Point","coordinates":[-122.417928,37.779392]},"clean_state":"success","city":"San Francisco","country_code":"USA","latitude":37.779392,"longitude":-122.417928,"total_money_raised":"$0"},{"name":"JumpBox","category_code":"software","office":{"type":"Point","coordinates":[-111.944967,33.429864]},"clean_state":"success","city":"Phoenix","country_code":"USA","latitude":33.429864,"longitude":-111.944967,"total_money_raised":"$0"},{"name":"Vuze","category_code":"games_video","office":{"type":"Point","coordinates":[-122.2262606,37.4858654]},"clean_state":"success","city":"San Mateo","country_code":"USA","latitude":37.4858654,"longitude":-122.2262606,"total_money_raised":"$34M"},{"name":"Relationals","category_code":"web","office":{"type":"Point","coordinates":[-121.992132,37.384651]},"clean_state":"success","city":"Sunnyvale","country_code":"USA","latitude":37.384651,"longitude":-121.992132,"total_money_raised":"$0"},{"name":"Phonezoo","category_code":"web","office":{"type":"Point","coordinates":[-121.991471,37.386376]},"clean_state":"success","city":"Sunnyvale","country_code":"USA","latitude":37.386376,"longitude":-121.991471,"total_money_raised":"$2.06M"},{"name":"LongJump","category_code":"enterprise","office":{"type":"Point","coordinates":[-121.992132,37.384651]},"clean_state":"success","city":"Sunnyvale","country_code":"USA","latitude":37.384651,"longitude":-121.992132,"total_money_raised":"$0"},{"name":"ProfileBuilder","category_code":"public_relations","office":{"type":"Point","coordinates":[-83.215454,42.545787]},"clean_state":"success","city":"Birmingham","country_code":"USA","latitude":42.545787,"longitude":-83.215454,"total_money_raised":"$0"},{"name":"Wishpot","category_code":"ecommerce","office":{"type":"Point","coordinates":[-122.347533,47.620716]},"clean_state":"success","city":"Seattle","country_code":"USA","latitude":47.620716,"longitude":-122.347533,"total_money_raised":"$1.3M"},{"name":"Truemors","category_code":"web","office":{"type":"Point","coordinates":[-122.163189,37.446687]},"clean_state":"success","city":"Palo Alto","country_code":"USA","latitude":37.446687,"longitude":-122.163189,"total_money_raised":"$0"},{"name":"Nononina","category_code":"web","office":{"type":"Point","coordinates":[-119.306607,37.269175]},"clean_state":"success","city":"","country_code":"USA","latitude":37.269175,"longitude":-119.306607,"total_money_raised":"$0"},{"name":"PodTech","category_code":"games_video","office":{"type":"Point","coordinates":[-122.154176,37.408256]},"clean_state":"success","city":"Palo Alto","country_code":"USA","latitude":37.408256,"longitude":-122.154176,"total_money_raised":"$7.5M"},{"name":"NowPublic","category_code":"web","office":{"type":"Point","coordinates":[-123.103986,49.283376]},"clean_state":"success","city":"Vancouver","country_code":"CAN","latitude":49.283376,"longitude":-123.103986,"total_money_raised":"$12M"},{"name":"DOmedia","category_code":"advertising","office":{"type":"Point","coordinates":[-83.005038,39.967704]},"clean_state":"success","city":"Columbus","country_code":"USA","latitude":39.967704,"longitude":-83.005038,"total_money_raised":"$0"},{"name":"Clipmarks","category_code":"photo_video","office":{"type":"Point","coordinates":[-73.985506,40.757929]},"clean_state":"success","city":"New York","country_code":"USA","latitude":40.757929,"longitude":-73.985506,"total_money_raised":"$0"},{"name":"Crackle","category_code":"games_video","office":{"type":"Point","coordinates":[-118.401579,34.017506]},"clean_state":"success","city":"Culver City","country_code":"USA","latitude":34.017506,"longitude":-118.401579,"total_money_raised":"$1.75M"},{"name":"Hotswap","category_code":"ecommerce","office":{"type":"Point","coordinates":[-122.268403,37.872222]},"clean_state":"success","city":"Berkeley","country_code":"USA","latitude":37.872222,"longitude":-122.268403,"total_money_raised":"$1M"},{"name":"PayScale","category_code":"software","office":{"type":"Point","coordinates":[-122.3276962,47.5999337]},"clean_state":"success","city":"Seattle","country_code":"USA","latitude":47.5999337,"longitude":-122.3276962,"total_money_raised":"$31.1M"},{"name":"Boonex","category_code":"software","office":{"type":"Point","coordinates":[150.981801,-33.722577]},"clean_state":"success","city":"Sydney","country_code":"AUS","latitude":-33.722577,"longitude":150.981801,"total_money_raised":"$0"},{"name":"Forbes","category_code":"web","office":{"type":"Point","coordinates":[-73.993302,40.736416]},"clean_state":"success","city":"New York","country_code":"USA","latitude":40.736416,"longitude":-73.993302,"total_money_raised":"$0"},{"name":"Reddit","category_code":"web","office":{"type":"Point","coordinates":[-122.395257,37.780883]},"clean_state":"success","city":"San Francisco","country_code":"USA","latitude":37.780883,"longitude":-122.395257,"total_money_raised":"$100k"},{"name":"IntenseDebate","category_code":"web","office":{"type":"Point","coordinates":[-105.276843,40.010492]},"clean_state":"success","city":"Boulder","country_code":"USA","latitude":40.010492,"longitude":-105.276843,"total_money_raised":"$515k"},{"name":"Rebtel","category_code":"mobile","office":{"type":"Point","coordinates":[18.1582777,59.3167843]},"clean_state":"success","city":"Nacka Strand","country_code":"SWE","latitude":59.3167843,"longitude":18.1582777,"total_money_raised":"$20M"},{"name":"Sony","category_code":"hardware","office":{"type":"Point","coordinates":[-95.712891,37.09024]},"clean_state":"success","city":"San Diego","country_code":"USA","latitude":37.09024,"longitude":-95.712891,"total_money_raised":"$0"},{"name":"Adobe Systems","category_code":"software","office":{"type":"Point","coordinates":[-121.877636,37.320052]},"clean_state":"success","city":"San Jose","country_code":"USA","latitude":37.320052,"longitude":-121.877636,"total_money_raised":"$0"},{"name":"BuddyTV","category_code":"games_video","office":{"type":"Point","coordinates":[-122.356756,47.61968]},"clean_state":"success","city":"Seattle","country_code":"USA","latitude":47.61968,"longitude":-122.356756,"total_money_raised":"$10.6M"},{"name":"Buxfer","category_code":"web","office":{"type":"Point","coordinates":[-122.073003,37.400465]},"clean_state":"success","city":"Mountain View","country_code":"USA","latitude":37.400465,"longitude":-122.073003,"total_money_raised":"$315k"},{"name":"Retrevo","category_code":"web","office":{"type":"Point","coordinates":[-122.034021,37.368594]},"clean_state":"success","city":"Sunnyvale","country_code":"USA","latitude":37.368594,"longitude":-122.034021,"total_money_raised":"$11.9M"},{"name":"boo-box","category_code":"advertising","office":{"type":"Point","coordinates":[-46.679287,-23.558584]},"clean_state":"success","city":"Sao Paulo","country_code":"BRA","latitude":-23.558584,"longitude":-46.679287,"total_money_raised":"$300k"},{"name":"SplashCast","category_code":"advertising","office":{"type":"Point","coordinates":[-95.712891,37.09024]},"clean_state":"success","city":"","country_code":"USA","latitude":37.09024,"longitude":-95.712891,"total_money_raised":"$4M"},{"name":"Tangler","category_code":"web","office":{"type":"Point","coordinates":[-122.084171,37.386665]},"clean_state":"success","city":"Mountain View","country_code":"USA","latitude":37.386665,"longitude":-122.084171,"total_money_raised":"$1.5M"},{"name":"Qualcomm","category_code":"semiconductor","office":{"type":"Point","coordinates":[-117.195414,32.89746]},"clean_state":"success","city":"San Diego","country_code":"USA","latitude":32.89746,"longitude":-117.195414,"total_money_raised":"$0"},{"name":"TextPayMe","category_code":"web","office":{"type":"Point","coordinates":[-122.115633,47.672229]},"clean_state":"success","city":"Redmond","country_code":"USA","latitude":47.672229,"longitude":-122.115633,"total_money_raised":"$0"},{"name":"KushCash","category_code":"mobile","office":{"type":"Point","coordinates":[-117.727468,33.58273]},"clean_state":"success","city":"Aliso Viejo","country_code":"USA","latitude":33.58273,"longitude":-117.727468,"total_money_raised":"$0"},{"name":"BillMonk","category_code":"web","office":{"type":"Point","coordinates":[-122.347533,47.620716]},"clean_state":"success","city":"Seattle","country_code":"USA","latitude":47.620716,"longitude":-122.347533,"total_money_raised":"$0"},{"name":"obopay","category_code":"mobile","office":{"type":"Point","coordinates":[-122.258037,37.524729]},"clean_state":"success","city":"Redwood City","country_code":"USA","latitude":37.524729,"longitude":-122.258037,"total_money_raised":"$145M"},{"name":"TalkPlus","category_code":"web","office":{"type":"Point","coordinates":[-122.300246,37.553743]},"clean_state":"success","city":"San Mateo","country_code":"USA","latitude":37.553743,"longitude":-122.300246,"total_money_raised":"$5.5M"},{"name":"Hightail","category_code":"network_hosting","office":{"type":"Point","coordinates":[-121.935688,37.288974]},"clean_state":"success","city":"Campbell","country_code":"USA","latitude":37.288974,"longitude":-121.935688,"total_money_raised":"$82.7M"},{"name":"Amazon","category_code":"ecommerce","office":{"type":"Point","coordinates":[-122.317295,47.5923]},"clean_state":"success","city":"Seattle","country_code":"USA","latitude":47.5923,"longitude":-122.317295,"total_money_raised":"$8M"},{"name":"Citizenbay","category_code":"web","office":{"type":"Point","coordinates":[-95.712891,37.09024]},"clean_state":"success","city":null,"country_code":"USA","latitude":37.09024,"longitude":-95.712891,"total_money_raised":"$0"},{"name":"MeeMix","category_code":"web","office":{"type":"Point","coordinates":[34.7595,32.0554]},"clean_state":"success","city":"Tel Aviv","country_code":"ISR","latitude":32.0554,"longitude":34.7595,"total_money_raised":"$0"},{"name":"WebbAlert","category_code":"games_video","office":{"type":"Point","coordinates":[-118.243425,34.052187]},"clean_state":"success","city":"Los Angeles","country_code":"USA","latitude":34.052187,"longitude":-118.243425,"total_money_raised":"$0"},{"name":"PermissionTV","category_code":"games_video","office":{"type":"Point","coordinates":[-71.258466,42.417268]},"clean_state":"success","city":"Waltham","country_code":"USA","latitude":42.417268,"longitude":-71.258466,"total_money_raised":"$9M"},{"name":"WallStrip","category_code":"games_video","office":{"type":"Point","coordinates":[-95.712891,37.09024]},"clean_state":"success","city":null,"country_code":"USA","latitude":37.09024,"longitude":-95.712891,"total_money_raised":"$600k"},{"name":"Rocketboom","category_code":"news","office":{"type":"Point","coordinates":[-73.97785,40.797364]},"clean_state":"success","city":"New York","country_code":"USA","latitude":40.797364,"longitude":-73.97785,"total_money_raised":"$1.5M"},{"name":"The Walt Disney Company","category_code":"games_video","office":{"type":"Point","coordinates":[-118.324987,34.156802]},"clean_state":"success","city":"Burbank","country_code":"USA","latitude":34.156802,"longitude":-118.324987,"total_money_raised":"$0"},{"name":"PayPal","category_code":"finance","office":{"type":"Point","coordinates":[-121.927696,37.294465]},"clean_state":"success","city":"San Jose","country_code":"USA","latitude":37.294465,"longitude":-121.927696,"total_money_raised":"$197M"},{"name":"Citysearch","category_code":"web","office":{"type":"Point","coordinates":[-118.38428,34.090932]},"clean_state":"success","city":"West Hollywood","country_code":"USA","latitude":34.090932,"longitude":-118.38428,"total_money_raised":"$0"},{"name":"Snapfish","category_code":"network_hosting","office":{"type":"Point","coordinates":[-122.396689,37.78554]},"clean_state":"success","city":"San Francisco","country_code":"USA","latitude":37.78554,"longitude":-122.396689,"total_money_raised":"$43.5M"},{"name":"IAC","category_code":"news","office":{"type":"Point","coordinates":[-74.007646,40.745172]},"clean_state":"success","city":"New York","country_code":"USA","latitude":40.745172,"longitude":-74.007646,"total_money_raised":"$0"},{"name":"Mattel","category_code":"web","office":{"type":"Point","coordinates":[-118.391852,33.920296]},"clean_state":"success","city":"El Segundo","country_code":"USA","latitude":33.920296,"longitude":-118.391852,"total_money_raised":"$0"},{"name":"Kaneva","category_code":"web","office":{"type":"Point","coordinates":[-84.350663,33.916374]},"clean_state":"success","city":"Atlanta","country_code":"USA","latitude":33.916374,"longitude":-84.350663,"total_money_raised":"$0"},{"name":"IMVU","category_code":"web","office":{"type":"Point","coordinates":[-122.0727749,37.3927975]},"clean_state":"success","city":"Mountain View","country_code":"USA","latitude":37.3927975,"longitude":-122.0727749,"total_money_raised":"$29M"},{"name":"madKast","category_code":"web","office":{"type":"Point","coordinates":[-105.276843,40.010492]},"clean_state":"success","city":"Boulder","country_code":"USA","latitude":40.010492,"longitude":-105.276843,"total_money_raised":"$315k"},{"name":"Outdoorzy","category_code":"network_hosting","office":{"type":"Point","coordinates":[-86.463026,37.018244]},"clean_state":"success","city":"Bowling Green","country_code":"USA","latitude":37.018244,"longitude":-86.463026,"total_money_raised":"$0"},{"name":"Meetro","category_code":"web","office":{"type":"Point","coordinates":[-122.159928,37.437328]},"clean_state":"success","city":"Palo Alto","country_code":"USA","latitude":37.437328,"longitude":-122.159928,"total_money_raised":"$0"},{"name":"Userplane","category_code":"enterprise","office":{"type":"Point","coordinates":[-118.495566,34.01676]},"clean_state":"success","city":"Santa Monica","country_code":"USA","latitude":34.01676,"longitude":-118.495566,"total_money_raised":"$0"},{"name":"AOL","category_code":"web","office":{"type":"Point","coordinates":[-73.9919311,40.7311317]},"clean_state":"success","city":"New York","country_code":"USA","latitude":40.7311317,"longitude":-73.9919311,"total_money_raised":"$1B"},{"name":"Scrybe","category_code":"enterprise","office":{"type":"Point","coordinates":[-74.761403,40.270666]},"clean_state":"success","city":"San Francisco","country_code":"USA","latitude":40.270666,"longitude":-74.761403,"total_money_raised":"$1.31M"},{"name":"Webkinz","category_code":"web","office":{"type":"Point","coordinates":[-79.549577,43.76969]},"clean_state":"success","city":"Woodbridge","country_code":"CAN","latitude":43.76969,"longitude":-79.549577,"total_money_raised":"$0"},{"name":"Mokitown","category_code":"web","office":{"type":"Point","coordinates":[-95.712891,37.09024]},"clean_state":"success","city":null,"country_code":"USA","latitude":37.09024,"longitude":-95.712891,"total_money_raised":"$0"},{"name":"MyToons","category_code":"games_video","office":{"type":"Point","coordinates":[-98.487764,29.427051]},"clean_state":"success","city":"San Antonio","country_code":"USA","latitude":29.427051,"longitude":-98.487764,"total_money_raised":"$0"},{"name":"Neopets","category_code":"web","office":{"type":"Point","coordinates":[-95.712891,37.09024]},"clean_state":"success","city":null,"country_code":"USA","latitude":37.09024,"longitude":-95.712891,"total_money_raised":"$0"},{"name":"Faketown","category_code":"web","office":{"type":"Point","coordinates":[-118.472721,33.988337]},"clean_state":"success","city":"Venice","country_code":"USA","latitude":33.988337,"longitude":-118.472721,"total_money_raised":"$0"},{"name":"Nirvanix","category_code":"enterprise","office":{"type":"Point","coordinates":[-117.210595,32.877656]},"clean_state":"success","city":"San Diego","country_code":"USA","latitude":32.877656,"longitude":-117.210595,"total_money_raised":"$70M"},{"name":"KnockaTV","category_code":"games_video","office":{"type":"Point","coordinates":[34.851612,31.046051]},"clean_state":"success","city":"","country_code":"ISR","latitude":31.046051,"longitude":34.851612,"total_money_raised":"$4.5M"},{"name":"Sulake","category_code":"web","office":{"type":"Point","coordinates":[24.945937,60.165166]},"clean_state":"success","city":"Helsinki","country_code":"FIN","latitude":60.165166,"longitude":24.945937,"total_money_raised":"$0"},{"name":"Millsberry","category_code":"web","office":{"type":"Point","coordinates":[-95.712891,37.09024]},"clean_state":"success","city":"mem","country_code":"USA","latitude":37.09024,"longitude":-95.712891,"total_money_raised":"$0"},{"name":"Viagogo","category_code":"ecommerce","office":{"type":"Point","coordinates":[-0.126236,51.500152]},"clean_state":"success","city":"San Francisco","country_code":"USA","latitude":51.500152,"longitude":-0.126236,"total_money_raised":"$65M"},{"name":"Pickle","category_code":"web","office":{"type":"Point","coordinates":[-77.081732,38.892371]},"clean_state":"success","city":"Arlington","country_code":"USA","latitude":38.892371,"longitude":-77.081732,"total_money_raised":"$0"},{"name":"Aniboom","category_code":"games_video","office":{"type":"Point","coordinates":[34.851612,31.046051]},"clean_state":"success","city":null,"country_code":"ISR","latitude":31.046051,"longitude":34.851612,"total_money_raised":"$14.5M"},{"name":"Echo","category_code":"enterprise","office":{"type":"Point","coordinates":[-122.1879633,38.0729365]},"clean_state":"success","city":"San francisco","country_code":"USA","latitude":38.0729365,"longitude":-122.1879633,"total_money_raised":"$4.8M"},{"name":"Strayform","category_code":"games_video","office":{"type":"Point","coordinates":[-100.076888,31.169036]},"clean_state":"success","city":null,"country_code":"USA","latitude":31.169036,"longitude":-100.076888,"total_money_raised":"$0"},{"name":"SelectMinds","category_code":"network_hosting","office":{"type":"Point","coordinates":[-73.990004,40.740251]},"clean_state":"success","city":"New York","country_code":"USA","latitude":40.740251,"longitude":-73.990004,"total_money_raised":"$5.5M"},{"name":"Omnifuse","category_code":"web","office":{"type":"Point","coordinates":[-117.928351,33.610083]},"clean_state":"success","city":"Newport Beach","country_code":"USA","latitude":33.610083,"longitude":-117.928351,"total_money_raised":"$0"},{"name":"GreatCall","category_code":"mobile","office":{"type":"Point","coordinates":[-117.265191,32.964294]},"clean_state":"success","city":"San Diego","country_code":"USA","latitude":32.964294,"longitude":-117.265191,"total_money_raised":"$75.3M"},{"name":"MindTouch","category_code":"enterprise","office":{"type":"Point","coordinates":[-117.167831,32.720656]},"clean_state":"success","city":"San Diego","country_code":"USA","latitude":32.720656,"longitude":-117.167831,"total_money_raised":"$0"},{"name":"Revver","category_code":"games_video","office":{"type":"Point","coordinates":[-118.243425,34.052187]},"clean_state":"success","city":"Los Angeles","country_code":"USA","latitude":34.052187,"longitude":-118.243425,"total_money_raised":"$12.7M"},{"name":"Metacafe","category_code":"games_video","office":{"type":"Point","coordinates":[-122.159928,37.437328]},"clean_state":"success","city":"San Francisco","country_code":"USA","latitude":37.437328,"longitude":-122.159928,"total_money_raised":"$50M"},{"name":"Social Platform","category_code":"web","office":{"type":"Point","coordinates":[-118.327071,34.101617]},"clean_state":"success","city":"Los Angeles","country_code":"USA","latitude":34.101617,"longitude":-118.327071,"total_money_raised":"$0"},{"name":"webcrossing","category_code":"web","office":{"type":"Point","coordinates":[-122.399646,37.794649]},"clean_state":"success","city":"San Francisco","country_code":"USA","latitude":37.794649,"longitude":-122.399646,"total_money_raised":"$0"},{"name":"Flock","category_code":"web","office":{"type":"Point","coordinates":[-122.228843,37.491356]},"clean_state":"success","city":"Menlo Park","country_code":"USA","latitude":37.491356,"longitude":-122.228843,"total_money_raised":"$28.3M"},{"name":"Sportingo","category_code":"web","office":{"type":"Point","coordinates":[-96.76492,17.08881]},"clean_state":"success","city":null,"country_code":"ISR","latitude":17.08881,"longitude":-96.76492,"total_money_raised":"$3.2M"},{"name":"Kontera","category_code":"advertising","office":{"type":"Point","coordinates":[-122.411157,37.767575]},"clean_state":"success","city":"San Francisco","country_code":"USA","latitude":37.767575,"longitude":-122.411157,"total_money_raised":"$36.1M"},{"name":"Splashup","category_code":"web","office":{"type":"Point","coordinates":[-95.712891,37.09024]},"clean_state":"success","city":"","country_code":"USA","latitude":37.09024,"longitude":-95.712891,"total_money_raised":"$10k"},{"name":"Yoomba","category_code":"web","office":{"type":"Point","coordinates":[-122.169472,37.48413]},"clean_state":"success","city":"Menlo Park","country_code":"USA","latitude":37.48413,"longitude":-122.169472,"total_money_raised":"$0"},{"name":"Negonation","category_code":"web","office":{"type":"Point","coordinates":[-3.74922,40.463667]},"clean_state":"success","city":"","country_code":"ESP","latitude":40.463667,"longitude":-3.74922,"total_money_raised":"$0"},{"name":"IODA","category_code":"games_video","office":{"type":"Point","coordinates":[-122.396744,37.780134]},"clean_state":"success","city":"San Francisco","country_code":"USA","latitude":37.780134,"longitude":-122.396744,"total_money_raised":"$0"},{"name":"SomethingSimpler","category_code":"search","office":{"type":"Point","coordinates":[-123.138565,49.263588]},"clean_state":"success","city":"Vancouver","country_code":"CAN","latitude":49.263588,"longitude":-123.138565,"total_money_raised":"$0"},{"name":"Curverider","category_code":"network_hosting","office":{"type":"Point","coordinates":[-1.197534,51.785428]},"clean_state":"success","city":"London","country_code":"GBR","latitude":51.785428,"longitude":-1.197534,"total_money_raised":"\u00a3300k"},{"name":"Akamai Technologies","category_code":"enterprise","office":{"type":"Point","coordinates":[-71.08907,42.364059]},"clean_state":"success","city":"Cambridge","country_code":"USA","latitude":42.364059,"longitude":-71.08907,"total_money_raised":"$0"},{"name":"Solfo","category_code":"search","office":{"type":"Point","coordinates":[-118.3489963,34.1872813]},"clean_state":"success","city":"Burbank","country_code":"USA","latitude":34.1872813,"longitude":-118.3489963,"total_money_raised":"$0"},{"name":"YellowBot","category_code":"search","office":{"type":"Point","coordinates":[-118.3489963,34.1872813]},"clean_state":"success","city":"Burbank","country_code":"USA","latitude":34.1872813,"longitude":-118.3489963,"total_money_raised":"$0"},{"name":"Sampa","category_code":"web","office":{"type":"Point","coordinates":[-122.135521,47.682233]},"clean_state":"success","city":"Redmond","country_code":"USA","latitude":47.682233,"longitude":-122.135521,"total_money_raised":"$1.31M"},{"name":"Techstars","category_code":"finance","office":{"type":"Point","coordinates":[-105.276843,40.010492]},"clean_state":"success","city":"Boulder","country_code":"USA","latitude":40.010492,"longitude":-105.276843,"total_money_raised":"$34M"},{"name":"RealEditor","category_code":"web","office":{"type":"Point","coordinates":[-77.236968,38.805114]},"clean_state":"success","city":null,"country_code":"USA","latitude":38.805114,"longitude":-77.236968,"total_money_raised":"$0"},{"name":"Weebly","category_code":"web","office":{"type":"Point","coordinates":[-122.400729,37.795555]},"clean_state":"success","city":"San Francisco","country_code":"USA","latitude":37.795555,"longitude":-122.400729,"total_money_raised":"$670k"},{"name":"Six Apart","category_code":"enterprise","office":{"type":"Point","coordinates":[139.7326754,35.6725213]},"clean_state":"success","city":"Tokyo","country_code":"JPN","latitude":35.6725213,"longitude":139.7326754,"total_money_raised":"$22.6M"},{"name":"DanceJam","category_code":"games_video","office":{"type":"Point","coordinates":[-122.407959,37.781557]},"clean_state":"success","city":"San Francisco","country_code":"USA","latitude":37.781557,"longitude":-122.407959,"total_money_raised":"$4.5M"},{"name":"Kongregate","category_code":"games_video","office":{"type":"Point","coordinates":[-122.401245,37.786942]},"clean_state":"success","city":"San Francisco","country_code":"USA","latitude":37.786942,"longitude":-122.401245,"total_money_raised":"$19M"},{"name":"Inneractive","category_code":"advertising","office":{"type":"Point","coordinates":[-122.3229235,37.5646055]},"clean_state":"success","city":"San Mateo","country_code":"USA","latitude":37.5646055,"longitude":-122.3229235,"total_money_raised":"$8.5M"},{"name":"EventVue","category_code":"public_relations","office":{"type":"Point","coordinates":[-105.276843,40.010492]},"clean_state":"success","city":"Boulder","country_code":"USA","latitude":40.010492,"longitude":-105.276843,"total_money_raised":"$455k"},{"name":"BitTorrent","category_code":"web","office":{"type":"Point","coordinates":[-122.394668,37.790998]},"clean_state":"success","city":"San Francisco","country_code":"USA","latitude":37.790998,"longitude":-122.394668,"total_money_raised":"$40.8M"},{"name":"Socialthing","category_code":"network_hosting","office":{"type":"Point","coordinates":[-105.2762236,40.0186731]},"clean_state":"success","city":"Boulder","country_code":"USA","latitude":40.0186731,"longitude":-105.2762236,"total_money_raised":"$415k"},{"name":"Filtrbox","category_code":"web","office":{"type":"Point","coordinates":[-105.276843,40.010492]},"clean_state":"success","city":"Palo Alto","country_code":"USA","latitude":40.010492,"longitude":-105.276843,"total_money_raised":"$1.92M"},{"name":"Bountii","category_code":"ecommerce","office":{"type":"Point","coordinates":[-122.159928,37.437328]},"clean_state":"success","city":"Palo Alto","country_code":"USA","latitude":37.437328,"longitude":-122.159928,"total_money_raised":"$15k"},{"name":"SlapVid","category_code":"games_video","office":{"type":"Point","coordinates":[-79.948563,40.445009]},"clean_state":"success","city":"Pittsburgh","country_code":"USA","latitude":40.445009,"longitude":-79.948563,"total_money_raised":"$0"},{"name":"Eventbee","category_code":"web","office":{"type":"Point","coordinates":[-122.007172,37.383779]},"clean_state":"success","city":"San Francisco","country_code":"USA","latitude":37.383779,"longitude":-122.007172,"total_money_raised":"$0"},{"name":"Brightkite","category_code":"social","office":{"type":"Point","coordinates":[-104.982256,39.762314]},"clean_state":"success","city":"Burlingame","country_code":"USA","latitude":39.762314,"longitude":-104.982256,"total_money_raised":"$1.42M"},{"name":"Veotag","category_code":"web","office":{"type":"Point","coordinates":[-73.98546,40.752957]},"clean_state":"success","city":"New York","country_code":"USA","latitude":40.752957,"longitude":-73.98546,"total_money_raised":"$1.95M"},{"name":"Guba","category_code":"web","office":{"type":"Point","coordinates":[-95.712891,37.09024]},"clean_state":"success","city":"San Francisco","country_code":"USA","latitude":37.09024,"longitude":-95.712891,"total_money_raised":"$0"},{"name":"GoFish","category_code":"games_video","office":{"type":"Point","coordinates":[-95.712891,37.09024]},"clean_state":"success","city":null,"country_code":"USA","latitude":37.09024,"longitude":-95.712891,"total_money_raised":"$24M"},{"name":"Cloudant","category_code":"enterprise","office":{"type":"Point","coordinates":[-71.05781,42.35892]},"clean_state":"success","city":"Boston","country_code":"USA","latitude":42.35892,"longitude":-71.05781,"total_money_raised":"$18.3M"},{"name":"Kiva","category_code":"finance","office":{"type":"Point","coordinates":[-122.4147,37.762125]},"clean_state":"success","city":"San Francisco","country_code":"USA","latitude":37.762125,"longitude":-122.4147,"total_money_raised":"$9M"},{"name":"Pixsy Image Search","category_code":"search","office":{"type":"Point","coordinates":[-122.393041,37.779558]},"clean_state":"success","city":"San Francisco","country_code":"USA","latitude":37.779558,"longitude":-122.393041,"total_money_raised":"$0"},{"name":"Fathom Online","category_code":"advertising","office":{"type":"Point","coordinates":[-122.419204,37.775196]},"clean_state":"success","city":"San Francisco","country_code":"USA","latitude":37.775196,"longitude":-122.419204,"total_money_raised":"$6M"},{"name":"Zopa","category_code":"finance","office":{"type":"Point","coordinates":[-0.139947,51.517904]},"clean_state":"success","city":"London","country_code":"GBR","latitude":51.517904,"longitude":-0.139947,"total_money_raised":"$33.9M"},{"name":"Hitwise","category_code":"web","office":{"type":"Point","coordinates":[144.963169,-37.814251]},"clean_state":"success","city":"Melbourne","country_code":"AUS","latitude":-37.814251,"longitude":144.963169,"total_money_raised":"$4.2M"},{"name":"Jambo","category_code":"web","office":{"type":"Point","coordinates":[-95.712891,37.09024]},"clean_state":"success","city":null,"country_code":"USA","latitude":37.09024,"longitude":-95.712891,"total_money_raised":"$5M"},{"name":"SuicideGirls","category_code":"web","office":{"type":"Point","coordinates":[-118.348198,34.062262]},"clean_state":"success","city":"Los Angeles","country_code":"USA","latitude":34.062262,"longitude":-118.348198,"total_money_raised":"$0"},{"name":"Zivity","category_code":"network_hosting","office":{"type":"Point","coordinates":[-122.397593,37.789488]},"clean_state":"success","city":"San Francisco","country_code":"USA","latitude":37.789488,"longitude":-122.397593,"total_money_raised":"$8M"},{"name":"eXpresso","category_code":"public_relations","office":{"type":"Point","coordinates":[-122.121932,37.451637]},"clean_state":"success","city":"Palo Alto","country_code":"USA","latitude":37.451637,"longitude":-122.121932,"total_money_raised":"$2M"},{"name":"BlueLithium","category_code":"advertising","office":{"type":"Point","coordinates":[-121.948399,37.32052]},"clean_state":"success","city":"San Jose","country_code":"USA","latitude":37.32052,"longitude":-121.948399,"total_money_raised":"$11.5M"},{"name":"ContextWeb","category_code":"analytics","office":{"type":"Point","coordinates":[-74.010808,40.71014]},"clean_state":"success","city":"New York","country_code":"USA","latitude":40.71014,"longitude":-74.010808,"total_money_raised":"$63.5M"},{"name":"Goowy","category_code":"web","office":{"type":"Point","coordinates":[-117.163353,32.71537]},"clean_state":"success","city":"San Diego","country_code":"USA","latitude":32.71537,"longitude":-117.163353,"total_money_raised":"$0"},{"name":"Sun Microsystems","category_code":"enterprise","office":{"type":"Point","coordinates":[-121.955463,37.394791]},"clean_state":"success","city":"Santa Clara","country_code":"USA","latitude":37.394791,"longitude":-121.955463,"total_money_raised":"$0"},{"name":"Jooce","category_code":"web","office":{"type":"Point","coordinates":[2.350987,48.856667]},"clean_state":"success","city":"Paris","country_code":"FRA","latitude":48.856667,"longitude":2.350987,"total_money_raised":"$0"},{"name":"InviteShare","category_code":"public_relations","office":{"type":"Point","coordinates":[-122.205016,37.450128]},"clean_state":"success","city":"Atherton","country_code":"USA","latitude":37.450128,"longitude":-122.205016,"total_money_raised":"$0"},{"name":"A9","category_code":"web","office":{"type":"Point","coordinates":[-122.164511,37.444554]},"clean_state":"success","city":"Palo Alto","country_code":"USA","latitude":37.444554,"longitude":-122.164511,"total_money_raised":"$0"},{"name":"Doostang","category_code":"web","office":{"type":"Point","coordinates":[-122.145783,37.427235]},"clean_state":"success","city":"Palo Alto","country_code":"USA","latitude":37.427235,"longitude":-122.145783,"total_money_raised":"$5.75M"},{"name":"JumpTV","category_code":"games_video","office":{"type":"Point","coordinates":[-74.011398,40.705898]},"clean_state":"success","city":"New York","country_code":"USA","latitude":40.705898,"longitude":-74.011398,"total_money_raised":"$0"},{"name":"Helium","category_code":"web","office":{"type":"Point","coordinates":[-71.1469,42.675189]},"clean_state":"success","city":"Andover","country_code":"USA","latitude":42.675189,"longitude":-71.1469,"total_money_raised":"$27M"},{"name":"Zango","category_code":"games_video","office":{"type":"Point","coordinates":[-122.155668,47.579208]},"clean_state":"success","city":"Bellevue","country_code":"USA","latitude":47.579208,"longitude":-122.155668,"total_money_raised":"$40M"},{"name":"ZoomInfo","category_code":"search","office":{"type":"Point","coordinates":[-71.207055,42.38532]},"clean_state":"success","city":"Waltham","country_code":"USA","latitude":42.38532,"longitude":-71.207055,"total_money_raised":"$7M"},{"name":"ZYB","category_code":"mobile","office":{"type":"Point","coordinates":[12.541484,55.699123]},"clean_state":"success","city":"Copenhagen","country_code":"DNK","latitude":55.699123,"longitude":12.541484,"total_money_raised":"\u20ac3M"},{"name":"DotBlu","category_code":"web","office":{"type":"Point","coordinates":[-95.712891,37.09024]},"clean_state":"success","city":"San Francisco","country_code":"USA","latitude":37.09024,"longitude":-95.712891,"total_money_raised":"$2.25M"},{"name":"Vlingo","category_code":"mobile","office":{"type":"Point","coordinates":[-71.118999,42.372912]},"clean_state":"success","city":"Cambridge","country_code":"USA","latitude":42.372912,"longitude":-71.118999,"total_money_raised":"$26.5M"},{"name":"Shock Treatment Management","category_code":"web","office":{"type":"Point","coordinates":[-122.339859,47.610332]},"clean_state":"success","city":"Seattle","country_code":"USA","latitude":47.610332,"longitude":-122.339859,"total_money_raised":"$4M"},{"name":"TechCrunch","category_code":"news","office":{"type":"Point","coordinates":[-122.1490582,37.4459832]},"clean_state":"success","city":"San Francisco","country_code":"USA","latitude":37.4459832,"longitude":-122.1490582,"total_money_raised":"$0"},{"name":"Docstoc","category_code":"web","office":{"type":"Point","coordinates":[-118.495025,34.018275]},"clean_state":"success","city":"Santa Monica","country_code":"USA","latitude":34.018275,"longitude":-118.495025,"total_money_raised":"$4M"},{"name":"MySpace","category_code":"network_hosting","office":{"type":"Point","coordinates":[-118.372953,34.076061]},"clean_state":"success","city":"Beverly Hills","country_code":"USA","latitude":34.076061,"longitude":-118.372953,"total_money_raised":"$0"},{"name":"Mevio","category_code":"games_video","office":{"type":"Point","coordinates":[-122.392142,37.782263]},"clean_state":"success","city":"San Francisco","country_code":"USA","latitude":37.782263,"longitude":-122.392142,"total_money_raised":"$48.9M"},{"name":"FilmLoop","category_code":"web","office":{"type":"Point","coordinates":[-122.169472,37.48413]},"clean_state":"success","city":"Menlo Park","country_code":"USA","latitude":37.48413,"longitude":-122.169472,"total_money_raised":"$12.6M"},{"name":"Pluck","category_code":"web","office":{"type":"Point","coordinates":[-97.745209,30.268735]},"clean_state":"success","city":"Austin","country_code":"USA","latitude":30.268735,"longitude":-97.745209,"total_money_raised":"$17M"},{"name":"BitPass","category_code":"web","office":{"type":"Point","coordinates":[-122.072981,37.40047]},"clean_state":"success","city":"Mountain View","country_code":"USA","latitude":37.40047,"longitude":-122.072981,"total_money_raised":"$13.3M"},{"name":"Ruckus","category_code":"games_video","office":{"type":"Point","coordinates":[-95.712891,37.09024]},"clean_state":"success","city":null,"country_code":"USA","latitude":37.09024,"longitude":-95.712891,"total_money_raised":"$52.2M"},{"name":"Kelkoo","category_code":"ecommerce","office":{"type":"Point","coordinates":[-95.712891,37.09024]},"clean_state":"success","city":"London","country_code":"USA","latitude":37.09024,"longitude":-95.712891,"total_money_raised":"$3M"},{"name":"NewsGator","category_code":"enterprise","office":{"type":"Point","coordinates":[-104.988123,39.755092]},"clean_state":"success","city":"Denver","country_code":"USA","latitude":39.755092,"longitude":-104.988123,"total_money_raised":"$39.3M"},{"name":"Musicmatch","category_code":"web","office":{"type":"Point","coordinates":[-95.712891,37.09024]},"clean_state":"success","city":null,"country_code":"USA","latitude":37.09024,"longitude":-95.712891,"total_money_raised":"$0"},{"name":"Atom Entertainment","category_code":"web","office":{"type":"Point","coordinates":[-122.401128,37.790964]},"clean_state":"success","city":"San Francisco","country_code":"USA","latitude":37.790964,"longitude":-122.401128,"total_money_raised":"$22.9M"},{"name":"sezmi","category_code":"games_video","office":{"type":"Point","coordinates":[-122.265869,37.524422]},"clean_state":"success","city":"Belmont","country_code":"USA","latitude":37.524422,"longitude":-122.265869,"total_money_raised":"$78.6M"},{"name":"sezmi","category_code":"games_video","office":{"type":"Point","coordinates":[-118.453218,34.017373]},"clean_state":"success","city":"Santa Monica","country_code":"USA","latitude":34.017373,"longitude":-118.453218,"total_money_raised":"$78.6M"},{"name":"sezmi","category_code":"games_video","office":{"type":"Point","coordinates":[-80.157296,26.207024]},"clean_state":"success","city":"Fort Lauderdale","country_code":"USA","latitude":26.207024,"longitude":-80.157296,"total_money_raised":"$78.6M"},{"name":"CinemaNow","category_code":"web","office":{"type":"Point","coordinates":[-118.432526,33.983543]},"clean_state":"success","city":"Marina Del Rey","country_code":"USA","latitude":33.983543,"longitude":-118.432526,"total_money_raised":"$11M"},{"name":"Friendster","category_code":"web","office":{"type":"Point","coordinates":[101.686855,3.139003]},"clean_state":"success","city":"Kuala Lumpur","country_code":"MYS","latitude":3.139003,"longitude":101.686855,"total_money_raised":"$48.5M"},{"name":"eHarmony","category_code":"web","office":{"type":"Point","coordinates":[-118.132351,34.145946]},"clean_state":"success","city":"Santa Monica","country_code":"USA","latitude":34.145946,"longitude":-118.132351,"total_money_raised":"$113M"},{"name":"Buzzmetrics","category_code":"web","office":{"type":"Point","coordinates":[-73.991933,40.731118]},"clean_state":"success","city":"New York","country_code":"USA","latitude":40.731118,"longitude":-73.991933,"total_money_raised":"$0"},{"name":"Heavy","category_code":"web","office":{"type":"Point","coordinates":[-73.98962,40.753385]},"clean_state":"success","city":"New York","country_code":"USA","latitude":40.753385,"longitude":-73.98962,"total_money_raised":"$33M"},{"name":"MusicGremlin","category_code":"hardware","office":{"type":"Point","coordinates":[-95.712891,37.09024]},"clean_state":"success","city":null,"country_code":"USA","latitude":37.09024,"longitude":-95.712891,"total_money_raised":"$11.6M"},{"name":"Greystripe","category_code":"advertising","office":{"type":"Point","coordinates":[-122.39323,37.710677]},"clean_state":"success","city":"San Francisco","country_code":"USA","latitude":37.710677,"longitude":-122.39323,"total_money_raised":"$17.6M"},{"name":"WeatherBug","category_code":"web","office":{"type":"Point","coordinates":[-77.2630048,39.2009241]},"clean_state":"success","city":"Germantown","country_code":"USA","latitude":39.2009241,"longitude":-77.2630048,"total_money_raised":"$38M"},{"name":"Nielsen","category_code":"web","office":{"type":"Point","coordinates":[-73.991933,40.731118]},"clean_state":"success","city":"New York","country_code":"USA","latitude":40.731118,"longitude":-73.991933,"total_money_raised":"$0"},{"name":"Narrowstep","category_code":"web","office":{"type":"Point","coordinates":[-95.712891,37.09024]},"clean_state":"success","city":null,"country_code":"USA","latitude":37.09024,"longitude":-95.712891,"total_money_raised":"$0"},{"name":"DAVE Networks","category_code":"web","office":{"type":"Point","coordinates":[-118.423423,33.979033]},"clean_state":"success","city":"Los Angeles","country_code":"USA","latitude":33.979033,"longitude":-118.423423,"total_money_raised":"$0"},{"name":"DAVE Networks","category_code":"web","office":{"type":"Point","coordinates":[-118.439787,33.979506]},"clean_state":"success","city":"Marina Del Rey","country_code":"USA","latitude":33.979506,"longitude":-118.439787,"total_money_raised":"$0"},{"name":"Burnlounge","category_code":"web","office":{"type":"Point","coordinates":[-73.993553,40.746953]},"clean_state":"success","city":"New York","country_code":"USA","latitude":40.746953,"longitude":-73.993553,"total_money_raised":"$0"},{"name":"Bix","category_code":"web","office":{"type":"Point","coordinates":[-95.712891,37.09024]},"clean_state":"success","city":null,"country_code":"USA","latitude":37.09024,"longitude":-95.712891,"total_money_raised":"$6.7M"},{"name":"Netblue","category_code":"web","office":{"type":"Point","coordinates":[-95.712891,37.09024]},"clean_state":"success","city":"Mountain View","country_code":"USA","latitude":37.09024,"longitude":-95.712891,"total_money_raised":"$0"},{"name":"Trulia","category_code":"search","office":{"type":"Point","coordinates":[-122.406676,37.766909]},"clean_state":"success","city":"San Francisco","country_code":"USA","latitude":37.766909,"longitude":-122.406676,"total_money_raised":"$255M"},{"name":"NexTag","category_code":"web","office":{"type":"Point","coordinates":[-122.317471,37.554595]},"clean_state":"success","city":"San Mateo","country_code":"USA","latitude":37.554595,"longitude":-122.317471,"total_money_raised":"$0"},{"name":"dpreview","category_code":"web","office":{"type":"Point","coordinates":[-3.435973,55.378051]},"clean_state":"success","city":"Seattle","country_code":"USA","latitude":55.378051,"longitude":-3.435973,"total_money_raised":"$0"},{"name":"TechTarget","category_code":"enterprise","office":{"type":"Point","coordinates":[-95.712891,37.09024]},"clean_state":"success","city":"Newton","country_code":"USA","latitude":37.09024,"longitude":-95.712891,"total_money_raised":"$0"},{"name":"TubeMogul","category_code":"advertising","office":{"type":"Point","coordinates":[-122.286493,37.836957]},"clean_state":"success","city":"Emeryville","country_code":"USA","latitude":37.836957,"longitude":-122.286493,"total_money_raised":"$53.2M"},{"name":"TripOvation","category_code":"web","office":{"type":"Point","coordinates":[-95.712891,37.09024]},"clean_state":"success","city":null,"country_code":"USA","latitude":37.09024,"longitude":-95.712891,"total_money_raised":"$3M"},{"name":"MusicNet","category_code":"web","office":{"type":"Point","coordinates":[-95.712891,37.09024]},"clean_state":"success","city":null,"country_code":"USA","latitude":37.09024,"longitude":-95.712891,"total_money_raised":"$0"},{"name":"Lastminute","category_code":"web","office":{"type":"Point","coordinates":[-95.712891,37.09024]},"clean_state":"success","city":"London","country_code":"GBR","latitude":37.09024,"longitude":-95.712891,"total_money_raised":"$0"},{"name":"SpiralFrog","category_code":"games_video","office":{"type":"Point","coordinates":[-95.712891,37.09024]},"clean_state":"success","city":"New York","country_code":"USA","latitude":37.09024,"longitude":-95.712891,"total_money_raised":"$45M"},{"name":"Sabre","category_code":"web","office":{"type":"Point","coordinates":[-97.1599393,32.9819881]},"clean_state":"success","city":"Southlake","country_code":"USA","latitude":32.9819881,"longitude":-97.1599393,"total_money_raised":"$0"},{"name":"YellowPages","category_code":"web","office":{"type":"Point","coordinates":[-118.255197,34.155224]},"clean_state":"success","city":"Glendale","country_code":"USA","latitude":34.155224,"longitude":-118.255197,"total_money_raised":"$0"},{"name":"Cendant","category_code":"web","office":{"type":"Point","coordinates":[-95.712891,37.09024]},"clean_state":"success","city":null,"country_code":"USA","latitude":37.09024,"longitude":-95.712891,"total_money_raised":"$0"},{"name":"Vtap","category_code":"games_video","office":{"type":"Point","coordinates":[-71.140538,42.656621]},"clean_state":"success","city":"Andover","country_code":"USA","latitude":42.656621,"longitude":-71.140538,"total_money_raised":"$14M"},{"name":"Sportsline","category_code":"web","office":{"type":"Point","coordinates":[-95.712891,37.09024]},"clean_state":"success","city":"Fort Lauderdale","country_code":"USA","latitude":37.09024,"longitude":-95.712891,"total_money_raised":"$0"},{"name":"JobPilot","category_code":"web","office":{"type":"Point","coordinates":[-95.712891,37.09024]},"clean_state":"success","city":null,"country_code":"USA","latitude":37.09024,"longitude":-95.712891,"total_money_raised":"$0"},{"name":"Tickle","category_code":"web","office":{"type":"Point","coordinates":[-95.712891,37.09024]},"clean_state":"success","city":null,"country_code":"USA","latitude":37.09024,"longitude":-95.712891,"total_money_raised":"$0"},{"name":"LimeLife","category_code":"news","office":{"type":"Point","coordinates":[-122.169472,37.48413]},"clean_state":"success","city":"Menlo Park","country_code":"USA","latitude":37.48413,"longitude":-122.169472,"total_money_raised":"$20.9M"},{"name":"Espotting","category_code":"advertising","office":{"type":"Point","coordinates":[-95.712891,37.09024]},"clean_state":"success","city":null,"country_code":"USA","latitude":37.09024,"longitude":-95.712891,"total_money_raised":"$0"},{"name":"MIVA","category_code":"advertising","office":{"type":"Point","coordinates":[-73.9932793,40.733276]},"clean_state":"success","city":"New York","country_code":"USA","latitude":40.733276,"longitude":-73.9932793,"total_money_raised":"$0"},{"name":"OpenTable","category_code":"web","office":{"type":"Point","coordinates":[-122.405265,37.785647]},"clean_state":"success","city":"San Francisco","country_code":"USA","latitude":37.785647,"longitude":-122.405265,"total_money_raised":"$48M"},{"name":"MocoSpace","category_code":"games_video","office":{"type":"Point","coordinates":[-71.058768,42.350274]},"clean_state":"success","city":"Boston","country_code":"USA","latitude":42.350274,"longitude":-71.058768,"total_money_raised":"$10.5M"},{"name":"Seedcamp","category_code":"finance","office":{"type":"Point","coordinates":[-0.1418973,51.5108803]},"clean_state":"success","city":"London","country_code":"GBR","latitude":51.5108803,"longitude":-0.1418973,"total_money_raised":"\u20ac5M"},{"name":"Digitas","category_code":"web","office":{"type":"Point","coordinates":[-95.712891,37.09024]},"clean_state":"success","city":"Boston","country_code":"USA","latitude":37.09024,"longitude":-95.712891,"total_money_raised":"$0"},{"name":"Digitas","category_code":"web","office":{"type":"Point","coordinates":[2.2673953,48.882314]},"clean_state":"success","city":"Neuilly sur Seine","country_code":"FRA","latitude":48.882314,"longitude":2.2673953,"total_money_raised":"$0"},{"name":"airG","category_code":"search","office":{"type":"Point","coordinates":[-75.066111,3.046111]},"clean_state":"success","city":"Vancouver","country_code":"CAN","latitude":3.046111,"longitude":-75.066111,"total_money_raised":"$0"},{"name":"LocaModa","category_code":"advertising","office":{"type":"Point","coordinates":[-71.104329,42.358822]},"clean_state":"success","city":"Cambridge","country_code":"USA","latitude":42.358822,"longitude":-71.104329,"total_money_raised":"$7.9M"},{"name":"YouBeQB","category_code":"games_video","office":{"type":"Point","coordinates":[-122.151158,47.597965]},"clean_state":"success","city":"Bellevue","country_code":"USA","latitude":47.597965,"longitude":-122.151158,"total_money_raised":"$0"},{"name":"RampedMedia","category_code":"web","office":{"type":"Point","coordinates":[-90.216499,38.618874]},"clean_state":"success","city":"Saint Louis","country_code":"USA","latitude":38.618874,"longitude":-90.216499,"total_money_raised":"$0"},{"name":"Adknowledge","category_code":"advertising","office":{"type":"Point","coordinates":[-94.597896,39.044694]},"clean_state":"success","city":"Kansas City","country_code":"USA","latitude":39.044694,"longitude":-94.597896,"total_money_raised":"$248M"},{"name":"Adknowledge","category_code":"advertising","office":{"type":"Point","coordinates":[-73.992463,40.748901]},"clean_state":"success","city":"New York","country_code":"USA","latitude":40.748901,"longitude":-73.992463,"total_money_raised":"$248M"},{"name":"Adknowledge","category_code":"advertising","office":{"type":"Point","coordinates":[-122.401406,37.78866]},"clean_state":"success","city":"San Francisco","country_code":"USA","latitude":37.78866,"longitude":-122.401406,"total_money_raised":"$248M"},{"name":"Adknowledge","category_code":"advertising","office":{"type":"Point","coordinates":[-81.879069,26.580095]},"clean_state":"success","city":"Fort Myers","country_code":"USA","latitude":26.580095,"longitude":-81.879069,"total_money_raised":"$248M"},{"name":"Adknowledge","category_code":"advertising","office":{"type":"Point","coordinates":[-79.3953743,43.6474554]},"clean_state":"success","city":"Toronto","country_code":"CAN","latitude":43.6474554,"longitude":-79.3953743,"total_money_raised":"$248M"},{"name":"Adknowledge","category_code":"advertising","office":{"type":"Point","coordinates":[-0.1229212,51.5114403]},"clean_state":"success","city":"Covent Garden, London","country_code":"GBR","latitude":51.5114403,"longitude":-0.1229212,"total_money_raised":"$248M"},{"name":"Adknowledge","category_code":"advertising","office":{"type":"Point","coordinates":[11.5582609,48.1635092]},"clean_state":"success","city":"Munich","country_code":"DEU","latitude":48.1635092,"longitude":11.5582609,"total_money_raised":"$248M"},{"name":"Adknowledge","category_code":"advertising","office":{"type":"Point","coordinates":[2.3797825,48.8506065]},"clean_state":"success","city":"Paris","country_code":"FRA","latitude":48.8506065,"longitude":2.3797825,"total_money_raised":"$248M"},{"name":"Adknowledge","category_code":"advertising","office":{"type":"Point","coordinates":[121.4770384,31.222622]},"clean_state":"success","city":"Shanghai","country_code":"CHN","latitude":31.222622,"longitude":121.4770384,"total_money_raised":"$248M"},{"name":"Frazr","category_code":"web","office":{"type":"Point","coordinates":[-95.712891,37.09024]},"clean_state":"success","city":null,"country_code":"USA","latitude":37.09024,"longitude":-95.712891,"total_money_raised":"$0"},{"name":"Yap","category_code":"messaging","office":{"type":"Point","coordinates":[-80.856178,35.22806]},"clean_state":"success","city":"Fort Mill","country_code":"USA","latitude":35.22806,"longitude":-80.856178,"total_money_raised":"$12M"},{"name":"PunchStock","category_code":"web","office":{"type":"Point","coordinates":[-95.712891,37.09024]},